[
    {
        "id": 2,
        "name": "-Парфюм-лидер- Универсам «Заря»",
        "lat": "55.021090",
        "lon": "73.410305",
        "city": "Омск",
        "line1": "г. Омск, ул. Багратиона, 4",
        "line2": "Ежедневно с 10:00 до 21:00",
        "freePlaces": 1,
        "usersInShop": [
            {
                "fio": "Нагибин Владислав",
                "phone": "89059216807"
            },
            {
                "fio": "Петров Иван",
                "phone": "89012876921"
            }
        ]
    },
    {
        "id": 4,
        "name": "-Парфюм-лидер- ТЦ «Арбатъ»",
        "lat": "54.985579",
        "lon": "73.404331",
        "city": "Омск",
        "line1": "г. Омск, ул. 10 лет Октября, 113",
        "line2": "Ежедневно с 10:00 до 21:00",
        "freePlaces": 1,
        "usersInShop": [
            {
                "fio": "Нагибин Владислав",
                "phone": "89059216807"
            },
            {
                "fio": "Петров Иван",
                "phone": "89012876921"
            }
        ]
    },
    {
        "id": 5,
        "name": "-Парфюм-лидер- пр. Мира, 60",
        "lat": "55.029498",
        "lon": "73.276849",
        "city": "Омск",
        "line1": "г. Омск, пр. Мира, 60",
        "line2": "Ежедневно с 10:00 до 21:00",
        "freePlaces": 0,
        "usersInShop": [
            {
                "fio": "Нагибин Владислав",
                "phone": "89059216807"
            },
            {
                "fio": "Петров Иван",
                "phone": "89012876921"
            },
            {
                "fio": "Иванов Петр",
                "phone": "89012888192"
            }
        ]
    },
    {
        "id": 6,
        "name": "-Парфюм-лидер- Торговая галерея «На Рождественского»",
        "lat": "54.940986",
        "lon": "73.380402",
        "city": "Омск",
        "line1": "г. Омск, ул. Рождественского, 6 к.2",
        "line2": "Ежедневно с 10:00 до 19:00",
        "freePlaces": 0,
        "usersInShop": [
            {
                "fio": "Нагибин Владислав",
                "phone": "89059216807"
            },
            {
                "fio": "Петров Иван",
                "phone": "89012876921"
            },
            {
                "fio": "Иванов Петр",
                "phone": "89012888192"
            }
        ]
    },
    {
        "id": 9,
        "name": "-Парфюм-лидер- ТК «Октябрьский»",
        "lat": "54.969009.",
        "lon": "73.446752",
        "city": "Омск",
        "line1": "г. Омск, пр. Космический, 17б",
        "line2": "Ежедневно с 10:00 до 21:00",
        "freePlaces": 2,
        "usersInShop": [
            {
                "fio": "Иванов Петр",
                "phone": "89012888192"
            }
        ]
    },
    {
        "id": 10,
        "name": "-Парфюм-лидер- ТЦ «Сатурн»",
        "lat": "60.965999 ",
        "lon": "69.039964",
        "city": "Ханты-Мансийск",
        "line1": "г. Ханты-Мансийск, ул. Заводская, 11а",
        "line2": "Ежедневно с 10:00 до 20:00",
        "freePlaces": 2,
        "usersInShop": [
            {
                "fio": "Иванов Петр",
                "phone": "89012888192"
            }
        ]
    },
    {
        "id": 12,
        "name": "-Парфюм-лидер- ТК «Пассаж»",
        "lat": "61.254705 ",
        "lon": "73.367863",
        "city": "Сургут",
        "line1": "г. Сургут, ул. Григория Кукуевицкого, 15/1",
        "line2": "Ежедневно с 10:00 до 20:00",
        "freePlaces": "3",
        "usersInShop": []
    },
    {
        "id": 13,
        "name": "-Парфюм-лидер- ТЦ BraVo",
        "lat": "61.254896",
        "lon": "73.441434",
        "city": "Сургут",
        "line1": "г. Сургут, ул. 30 лет Победы, 56",
        "line2": "Ежедневно с 09:00 до 20:00",
        "freePlaces": "3",
        "usersInShop": []
    },
    {
        "id": 14,
        "name": "-Парфюм-лидер- ТЦ Festival City",
        "lat": "54.980954",
        "lon": "73.321220",
        "city": "Омск",
        "line1": "г. Омск, ул. 70 лет Октября, 19",
        "line2": "Ежедневно с 10:00 до 21:00",
        "freePlaces": "3",
        "usersInShop": []
    },
    {
        "id": 15,
        "name": "-Парфюм-лидер- ТД «Ксюша»",
        "lat": "61.082754",
        "lon": "72.621864",
        "city": "Нефтеюганск",
        "line1": "г. Нефтеюганск, 16-ый микрорайон, 11",
        "line2": "Ежедневно с 09:00 до 21:00",
        "freePlaces": "3",
        "usersInShop": []
    },
    {
        "id": 16,
        "name": "-Парфюм-лидер- пр. Комсомольский, 25",
        "lat": "61.238931",
        "lon": "73.454516",
        "city": "Сургут",
        "line1": "г. Сургут, пр. Комсомольский, 25",
        "line2": "Ежедневно с 10:00 до 20:00",
        "freePlaces": "3",
        "usersInShop": []
    },
    {
        "id": 17,
        "name": "-Парфюм-лидер- ТЦ «Обь»",
        "lat": "61.623716 ",
        "lon": "72.150972",
        "city": "Лянтор",
        "line1": "г. Лянтор, 2-ой микрорайон, 58",
        "line2": "Ежедневно с 10:00 до 20:00",
        "freePlaces": "3",
        "usersInShop": []
    },
    {
        "id": 18,
        "name": "-Парфюм-лидер- ТЦ «Нефтяник»",
        "lat": "60.749805 ",
        "lon": "72.792026",
        "city": "Пыть-Ях",
        "line1": "г. Пыть-Ях, 5-ый микрорайон, 13",
        "line2": "Ежедневно с 10:00 до 20:00",
        "freePlaces": "3",
        "usersInShop": []
    },
    {
        "id": 19,
        "name": "-Парфюм-лидер- ул. Гашека, 13",
        "lat": "54.908263",
        "lon": "73.445775",
        "city": "Омск",
        "line1": "г. Омск, ул. Гашека, 13",
        "line2": "Ежедневно с 10:00 до 21:00",
        "freePlaces": "3",
        "usersInShop": []
    },
    {
        "id": 20,
        "name": "-Парфюм-лидер- ул. Красный путь, 67",
        "lat": "54.997724",
        "lon": "73.355429",
        "city": "Омск",
        "line1": "г. Омск, ул. Красный путь, 67",
        "line2": "Ежедневно с 10:00 до 21:00",
        "freePlaces": "3",
        "usersInShop": []
    },
    {
        "id": 21,
        "name": "-Парфюм-лидер- ул. Ленина, 36",
        "lat": "61.249135",
        "lon": "75.180983",
        "city": "Лангепас",
        "line1": "г. Лангепас, ул. Ленина, 36",
        "line2": "Ежедневно с 10:00 до 21:00",
        "freePlaces": "3",
        "usersInShop": []
    },
    {
        "id": 22,
        "name": "-Парфюм-лидер- ТК «На Кузнечной»",
        "lat": "54.972588",
        "lon": "73.411549",
        "city": "Омск",
        "line1": "г. Омск, ул. Богдана Хмельницкого, 160",
        "line2": "Ежедневно с 10:00 до 21:00",
        "freePlaces": "3",
        "usersInShop": []
    },
    {
        "id": 23,
        "name": "-Парфюм-лидер- ТЦ «Премьер»",
        "lat": "60.937145",
        "lon": "76.604282",
        "city": "Нижневартовск",
        "line1": "г. Нижневартовск, ул. Мира, 75",
        "line2": "Ежедневно с 10:00 до 20:00",
        "freePlaces": "3",
        "usersInShop": []
    },
    {
        "id": 25,
        "name": "-Парфюм-лидер- ул. Василия Гольцова, 10",
        "lat": "57.110223",
        "lon": "65.573862",
        "city": "Тюмень",
        "line1": "г. Тюмень, ул. Василия Гольцова, 10",
        "line2": "Ежедневно с 10:00 до 20:00",
        "freePlaces": "3",
        "usersInShop": []
    },
    {
        "id": 30,
        "name": "-Парфюм-лидер- пр. Ленина, 39",
        "lat": "61.254498",
        "lon": "73.389652",
        "city": "Сургут",
        "line1": "г. Сургут, пр. Ленина, 39",
        "line2": "Ежедневно с 10:00 до 20:00",
        "freePlaces": "3",
        "usersInShop": []
    },
    {
        "id": 31,
        "name": "-Парфюм-лидер- ТЦ «Некст»",
        "lat": "61.364480 ",
        "lon": "63.568338",
        "city": "Советский",
        "line1": "г. Советский, ул. Гастелло, 19а",
        "line2": "Ежедневно с 10:00 до 20:00",
        "freePlaces": "3",
        "usersInShop": []
    },
    {
        "id": 33,
        "name": "-Парфюм-лидер- ул. Республики, 94/1",
        "lat": "57.142121",
        "lon": "65.560602",
        "city": "Тюмень",
        "line1": "г. Тюмень, ул. Республики, 94/1",
        "line2": "Ежедневно с 10:00 до 21:00",
        "freePlaces": "3",
        "usersInShop": []
    },
    {
        "id": 35,
        "name": "-Парфюм-лидер- Экомолл «Гранат»",
        "lat": "56.797180 ",
        "lon": "60.581866",
        "city": "Екатеринбург",
        "line1": "г. Екатеринбург, ул. Амундсена, 63",
        "line2": "Ежедневно с 10:00 до 22:00",
        "freePlaces": "3",
        "usersInShop": []
    },
    {
        "id": 36,
        "name": "-Парфюм-лидер- ТЦ «Восток»",
        "lat": "58.690041",
        "lon": "59.486482",
        "city": "Качканар",
        "line1": "г. Качканар, ул. Гикалова, 7б",
        "line2": "Ежедневно с 10:00 до 20:00",
        "freePlaces": "3",
        "usersInShop": []
    },
    {
        "id": 39,
        "name": "-Парфюм-лидер- 8-ой микрорайон, 41/1",
        "lat": "58.223762",
        "lon": "68.278142",
        "city": "Тобольск",
        "line1": "г. Тобольск, 8-ой микрорайон, 41/1",
        "line2": "Ежедневно с 10:00 до 21:00",
        "freePlaces": "3",
        "usersInShop": []
    },
    {
        "id": 40,
        "name": "-Парфюм-лидер- ТЦ «Росич»",
        "lat": "62.263920",
        "lon": "74.495005",
        "city": "Когалым",
        "line1": "г. Когалым, ул. Дружбы народов, 27",
        "line2": "Ежедневно с 10:00 до 20:00",
        "freePlaces": "3",
        "usersInShop": []
    },
    {
        "id": 41,
        "name": "-Парфюм-лидер- ТК «Март»",
        "lat": "54.444485 ",
        "lon": "61.275968",
        "city": "Южноуральск",
        "line1": "г. Южноуральск, ул. Советской Армии, 7",
        "line2": "Ежедневно с 10:00 до 20:00",
        "freePlaces": "3",
        "usersInShop": []
    },
    {
        "id": 42,
        "name": "-Парфюм-лидер- ТЦ «Империя моды»",
        "lat": "56.615377 ",
        "lon": "57.775911",
        "city": "Красноуфимск",
        "line1": "г. Красноуфимск, ул. Мизерова, 121",
        "line2": "Ежедневно с 10:00 до 20:00",
        "freePlaces": "3",
        "usersInShop": []
    },
    {
        "id": 43,
        "name": "-Парфюм-лидер- ул. Артиллерийская, 26",
        "lat": "56.111569",
        "lon": "69.483924",
        "city": "Ишим",
        "line1": "г. Ишим, ул. Артиллерийская, 26",
        "line2": "Ежедневно с 10:00 до 20:00",
        "freePlaces": "3",
        "usersInShop": []
    },
    {
        "id": 44,
        "name": "-Парфюм-лидер- ул. Степанца, 10/4",
        "lat": "54.997828",
        "lon": "73.287413",
        "city": "Омск",
        "line1": "г. Омск, ул. Степанца, 10/4",
        "line2": "Ежедневно с 10:00 до 20:00",
        "freePlaces": "3",
        "usersInShop": []
    },
    {
        "id": 46,
        "name": "-Парфюм-лидер- 7-ой микрорайон, 54",
        "lat": "61.093642 ",
        "lon": "72.622798",
        "city": "Нефтеюганск",
        "line1": "г. Нефтеюганск, 7-ой микрорайон, 54",
        "line2": "Ежедневно с 10:00 до 20:00",
        "freePlaces": "3",
        "usersInShop": []
    },
    {
        "id": 47,
        "name": "-Парфюм-лидер- ТЦ NEBO",
        "lat": "59.607480",
        "lon": "60.611165",
        "city": "Серов",
        "line1": "г. Серов, ул. Ленина, 215",
        "line2": "Ежедневно с 10:00 до 21:00",
        "freePlaces": "3",
        "usersInShop": []
    },
    {
        "id": 48,
        "name": "-Парфюм-лидер- ул. Республики, 57",
        "lat": "57.149994 ",
        "lon": "65.548253",
        "city": "Тюмень",
        "line1": "г. Тюмень, ул. Республики, 57",
        "line2": "Ежедневно с 10:00 до 21:00",
        "freePlaces": "3",
        "usersInShop": []
    },
    {
        "id": 49,
        "name": "-Парфюм-лидер- ТЦ «Центральный»",
        "lat": "63.196248",
        "lon": "75.441031",
        "city": "Ноябрьск",
        "line1": "г. Ноябрьск, ул. Ленина, 22",
        "line2": "Ежедневно с 10:00 до 21:00",
        "freePlaces": "3",
        "usersInShop": []
    },
    {
        "id": 50,
        "name": "-Парфюм-лидер- 4-ый микрорайон, 36",
        "lat": "64.435164 ",
        "lon": "76.491347",
        "city": "Губкинский",
        "line1": "г. Губкинский, 4-ый микрорайон, 36",
        "line2": "Ежедневно с 10:00 до 20:00",
        "freePlaces": "3",
        "usersInShop": []
    },
    {
        "id": 51,
        "name": "-Парфюм-лидер- ТЦ «Небо»",
        "lat": "57.013106",
        "lon": "61.454162",
        "city": "Асбест",
        "line1": "г. Асбест, ул. Ленинградская, 26/2",
        "line2": "Ежедневно с 10:00 до 20:00",
        "freePlaces": "3",
        "usersInShop": []
    },
    {
        "id": 52,
        "name": "-Парфюм-лидер- ТЦ «Амикан»",
        "lat": "65.527987 ",
        "lon": "72.544717",
        "city": "Надым",
        "line1": "г. Надым, ул. Зверева, 43",
        "line2": "Ежедневно с 10:00 до 20:00",
        "freePlaces": "3",
        "usersInShop": []
    },
    {
        "id": 53,
        "name": "-Парфюм-лидер- ТРЦ «Палермо»",
        "lat": "56.505066 ",
        "lon": "60.264274",
        "city": "Полевской",
        "line1": "г. Полевской, микрорайон «Зеленый Бор-1», 4а",
        "line2": "Ежедневно с 10:00 до 21:00",
        "freePlaces": "3",
        "usersInShop": []
    },
    {
        "id": 54,
        "name": "-Парфюм-лидер- ТК «Премьер»",
        "lat": "61.265224",
        "lon": "73.379182",
        "city": "Сургут",
        "line1": "г. Сургут, ул. Чехова, 6/2",
        "line2": "Ежедневно с 10:00 до 20:00",
        "freePlaces": "3",
        "usersInShop": []
    },
    {
        "id": 55,
        "name": "-Парфюм-лидер- ТК \"Первомайский\"",
        "lat": "55.046094",
        "lon": "73.315988",
        "city": "Омск",
        "line1": "г. Омск, ул. Заозерная, 11, к. 1",
        "line2": "Ежедневно с 10:00 до 20:00",
        "freePlaces": "3",
        "usersInShop": []
    },
    {
        "id": 56,
        "name": "-Парфюм-лидер- ул. Ленина, 5",
        "lat": "57.372770",
        "lon": "61.390683",
        "city": "Реж",
        "line1": "г. Реж, ул. Ленина, 5",
        "line2": "Ежедневно с 10:00 до 20:00",
        "freePlaces": "3",
        "usersInShop": []
    },
    {
        "id": 58,
        "name": "-Парфюм-лидер- ТД \"Центральный\"",
        "lat": "57.147189 ",
        "lon": "65.543940",
        "city": "Тюмень",
        "line1": "г. Тюмень, ул. Некрасова, 10",
        "line2": "Ежедневно с 10:00 до 20:00",
        "freePlaces": "3",
        "usersInShop": []
    },
    {
        "id": 59,
        "name": "-Парфюм-лидер- ТЦ «Калинка»",
        "lat": "58.632693 ",
        "lon": "59.769866",
        "city": "Лесной",
        "line1": "г. Лесной, ул. Ленина,84",
        "line2": "Ежедневно с 10:00 до 20:00",
        "freePlaces": "3",
        "usersInShop": []
    },
    {
        "id": 60,
        "name": "-Парфюм-лидер- ул. Ленина, 57",
        "lat": "57.154771",
        "lon": "65.533825",
        "city": "Тюмень",
        "line1": "г. Тюмень, ул. Ленина, 57",
        "line2": "Ежедневно с 10:00 до 20:00",
        "freePlaces": "3",
        "usersInShop": []
    },
    {
        "id": 61,
        "name": "-Парфюм-лидер- ул. Строителей, 3",
        "lat": "58.284885",
        "lon": "59.770917",
        "city": "Кушва",
        "line1": "г. Кушва, ул. Строителей, 3",
        "line2": "Ежедневно с 10:00 до 19:00",
        "freePlaces": "3",
        "usersInShop": []
    },
    {
        "id": 62,
        "name": "-Парфюм-лидер- рынок «Пионерный 2»",
        "lat": "65.538073 ",
        "lon": "72.522221",
        "city": "Надым",
        "line1": "г. Надым, ул. Ямальская, панель Д",
        "line2": "Ежедневно с 10:00 до 20:00",
        "freePlaces": "3",
        "usersInShop": []
    },
    {
        "id": 63,
        "name": "-Парфюм-лидер- ТК «Радуга»",
        "lat": "60.996562",
        "lon": "71.902458",
        "city": "Пойковский",
        "line1": "пгт. Пойковский, 5-ый микрорайон, 10",
        "line2": "Ежедневно с 10:00 до 20:00",
        "freePlaces": "3",
        "usersInShop": []
    },
    {
        "id": 64,
        "name": "-Парфюм-лидер- КТК «Северо-Западный»",
        "lat": "55.190057 ",
        "lon": "61.320206",
        "city": "Челябинск",
        "line1": "г. Челябинск, пр. Победы, 348/1",
        "line2": "Ежедневно с 10:00 до 20:00",
        "freePlaces": "3",
        "usersInShop": []
    },
    {
        "id": 65,
        "name": "-Парфюм-лидер- ТЦ «Столичный»",
        "lat": "59.767465 ",
        "lon": "60.205473",
        "city": "Краснотурьинск",
        "line1": "г. Краснотурьинск, ул. Ленинского Комсомола, 21",
        "line2": "Ежедневно с 10:00 до 21:00",
        "freePlaces": "3",
        "usersInShop": []
    },
    {
        "id": 67,
        "name": "-Парфюм-лидер- ТРК «Фестиваль»",
        "lat": "55.753755",
        "lon": "60.684349",
        "city": "Озерск",
        "line1": "г. Озерск, ул. Дзержинского, 35a",
        "line2": "Ежедневно с 10:00 до 21:00",
        "freePlaces": "3",
        "usersInShop": []
    },
    {
        "id": 68,
        "name": "-Парфюм-лидер- ТРЦ «Проспект»",
        "lat": "66.084754 ",
        "lon": "76.686133",
        "city": "Новый Уренгой",
        "line1": "г. Новый Уренгой, пр. Ленинградский, 13а",
        "line2": "Ежедневно с 10:00 до 21:00",
        "freePlaces": "3",
        "usersInShop": []
    },
    {
        "id": 69,
        "name": "-Парфюм-лидер- ТЦ «ДоМиНо»",
        "lat": "54.918251 ",
        "lon": "71.265963",
        "city": "Исилькуль",
        "line1": "г. Исилькуль, ул. Коммунистическая, 33",
        "line2": "Ежедневно с 10:00 до 19:00",
        "freePlaces": "3",
        "usersInShop": []
    },
    {
        "id": 70,
        "name": "-Парфюм-лидер- ТРЦ «Лайнер»",
        "lat": "61.315784",
        "lon": "63.343018",
        "city": "Югорск",
        "line1": "г. Югорск, ул. Октябрьская, 2",
        "line2": "Ежедневно с 10:00 до 22:00",
        "freePlaces": "3",
        "usersInShop": []
    },
    {
        "id": 71,
        "name": "-Парфюм-лидер- ул. Мира, 51",
        "lat": "61.007073",
        "lon": "69.042963",
        "city": "Ханты-Мансийск",
        "line1": "г. Ханты-Мансийск, ул. Мира, 51",
        "line2": "Ежедневно с 10:00 до 20:00",
        "freePlaces": "3",
        "usersInShop": []
    },
    {
        "id": 72,
        "name": "-Парфюм-лидер- ТЦ «КС»",
        "lat": "55.230139 ",
        "lon": "61.378590",
        "city": "Челябинск",
        "line1": "г. Челябинск, ул. Черкасская, 15",
        "line2": "Ежедневно с 10:00 до 21:00",
        "freePlaces": "3",
        "usersInShop": []
    },
    {
        "id": 73,
        "name": "-Парфюм-лидер- ул. Лукашевича, 21Б",
        "lat": "54.999671",
        "lon": "73.280626",
        "city": "Омск",
        "line1": "г. Омск, ул. Лукашевича, 21Б",
        "line2": "Ежедневно с 10:00 до 20:00",
        "freePlaces": "3",
        "usersInShop": []
    },
    {
        "id": 74,
        "name": "-Парфюм-лидер- ул. Фрунзе, 54",
        "lat": "57.921751 ",
        "lon": "59.940384",
        "city": "Нижний Тагил",
        "line1": "г. Нижний Тагил, ул. Фрунзе, 54",
        "line2": "Ежедневно с 10:00 до 20:00",
        "freePlaces": "3",
        "usersInShop": []
    },
    {
        "id": 75,
        "name": "-Парфюм-лидер- ул. Путилова, 7",
        "lat": "54.992312",
        "lon": "73.279243",
        "city": "Омск",
        "line1": "г. Омск, ул. Путилова, 7",
        "line2": "Ежедневно с 09:30 до 18:00",
        "freePlaces": "3",
        "usersInShop": []
    },
    {
        "id": 76,
        "name": "-Парфюм-лидер- ТЦ «Сибирское подворье»",
        "lat": "61.035888",
        "lon": "76.121938",
        "city": "Мегион",
        "line1": "г. Мегион, ул. Кузьмина, 7",
        "line2": "Ежедневно с 10:00 до 20:00",
        "freePlaces": "3",
        "usersInShop": []
    },
    {
        "id": 77,
        "name": "-Парфюм-лидер- ТРЦ \"Гудзон\"",
        "lat": "66.114475",
        "lon": "76.672290",
        "city": "Новый Уренгой",
        "line1": "г. Новый Уренгой, ул. Подшибякина, 1/2 А ",
        "line2": "Ежедневно с 10:00 до 22:00",
        "freePlaces": "3",
        "usersInShop": []
    },
    {
        "id": 78,
        "name": "-Парфюм-лидер- ТЦ «911»",
        "lat": "58.634955 ",
        "lon": "59.777967",
        "city": "Лесной",
        "line1": "г. Лесной, ул. Фрунзе, 11",
        "line2": "Ежедневно с 10:00 до 20:00",
        "freePlaces": "3",
        "usersInShop": []
    },
    {
        "id": 79,
        "name": "-Парфюм-лидер- «ТК Меркар» ",
        "lat": "54.960126",
        "lon": "73.413074",
        "city": "Омск",
        "line1": "г. Омск, ул. Богдана Хмельницкого, 214  ",
        "line2": "Ежедневно с 10:00 до 21:00",
        "freePlaces": "3",
        "usersInShop": []
    },
    {
        "id": 81,
        "name": "-Парфюм-лидер- ТРЦ «Фан Фан»",
        "lat": "56.816357",
        "lon": "60.586165",
        "city": "Екатеринбург",
        "line1": "г. Екатеринбург, ул. Ясная, 2",
        "line2": "Ежедневно с 10:00 до 22:00",
        "freePlaces": "3",
        "usersInShop": []
    },
    {
        "id": 82,
        "name": "-Парфюм-лидер- пр. Карла Маркса, 10",
        "lat": "54.973731",
        "lon": "73.381780",
        "city": "Омск",
        "line1": "г. Омск, пр. Карла Маркса, 10",
        "line2": "Ежедневно с 10:00 до 21:00",
        "freePlaces": "3",
        "usersInShop": []
    },
    {
        "id": 85,
        "name": "-Парфюм-лидер- ТД «На Конева»",
        "lat": "54.978876",
        "lon": "73.310500",
        "city": "Омск",
        "line1": "г. Омск, ул. Конева, 28а",
        "line2": "Ежедневно с 10:00 до 20:00",
        "freePlaces": "3",
        "usersInShop": []
    },
    {
        "id": 88,
        "name": "-Парфюм-лидер- ул. 10-я Чередовая, 26",
        "lat": "54.921626",
        "lon": "73.417070",
        "city": "Омск",
        "line1": "г. Омск, ул. 10-я Чередовая, 26",
        "line2": "Ежедневно с 10:00 до 21:00",
        "freePlaces": "3",
        "usersInShop": []
    },
    {
        "id": 89,
        "name": "-Парфюм-лидер- ул. Маяковского, 48/2",
        "lat": "54.971111",
        "lon": "73.396863",
        "city": "Омск",
        "line1": "г. Омск, ул. Маяковского, 48/2",
        "line2": "Ежедневно с 10:00 до 20:00",
        "freePlaces": "3",
        "usersInShop": []
    },
    {
        "id": 91,
        "name": "-Парфюм-лидер- ТОК «Русшина»",
        "lat": "54.986210",
        "lon": "73.425124",
        "city": "Омск",
        "line1": "г. Омск, ул. 10 лет Октября, 166",
        "line2": "Ежедневно с 10:00 до 20:00",
        "freePlaces": "3",
        "usersInShop": []
    },
    {
        "id": 92,
        "name": "-Парфюм-лидер- ТК «Тополинный»",
        "lat": "54.989573",
        "lon": "73.307459",
        "city": "Омск",
        "line1": "г. Омск, ул. Бульвар Архитекторов, 5/1",
        "line2": "Ежедневно с 10:00 до 20:00",
        "freePlaces": "3",
        "usersInShop": []
    },
    {
        "id": 93,
        "name": "-Парфюм-лидер- ул. 21 Амурская, 12/1",
        "lat": "55.027392",
        "lon": "73.413974",
        "city": "Омск",
        "line1": "г. Омск, ул. 21 Амурская, 12/1",
        "line2": "Ежедневно с 10:00 до 21:00",
        "freePlaces": "3",
        "usersInShop": []
    },
    {
        "id": 94,
        "name": "-Парфюм-лидер- ул. Герцена, 38",
        "lat": "54.997022",
        "lon": "73.373168",
        "city": "Омск",
        "line1": "г. Омск, ул. Герцена, 38",
        "line2": "Ежедневно с 10:00 до 20:00",
        "freePlaces": "3",
        "usersInShop": []
    },
    {
        "id": 95,
        "name": "-Парфюм-лидер- ул. Лукашевича, 15д",
        "lat": "54.994784",
        "lon": "73.279463",
        "city": "Омск",
        "line1": "г. Омск, ул. Лукашевича, 15д",
        "line2": "Ежедневно с 10:00 до 20:00",
        "freePlaces": "3",
        "usersInShop": []
    },
    {
        "id": 98,
        "name": "-Парфюм-лидер- ТК «Лето»",
        "lat": "54.993014 ",
        "lon": "73.265110",
        "city": "Омск",
        "line1": "г. Омск, ул. Дианова, 3/1",
        "line2": "Ежедневно с 10:00 до 20:00",
        "freePlaces": "3",
        "usersInShop": []
    },
    {
        "id": 99,
        "name": "-Парфюм-лидер- ТК «Алладин»",
        "lat": "55.029473",
        "lon": "73.249190",
        "city": "Омск",
        "line1": "г. Омск, пр. Мира, 100",
        "line2": "Ежедневно с 10:00 до 20:00",
        "freePlaces": "3",
        "usersInShop": []
    },
    {
        "id": 102,
        "name": "-Парфюм-лидер- ТК «Калашный град»",
        "lat": "55.051832",
        "lon": "74.582759",
        "city": "Калачинск",
        "line1": "г. Калачинск, ул. Советская, 3",
        "line2": "Ежедневно с 09:00 до 19:00",
        "freePlaces": "3",
        "usersInShop": []
    },
    {
        "id": 103,
        "name": "-Парфюм-лидер- ул. 24-я Северная, 212",
        "lat": "55.023043",
        "lon": "73.400587",
        "city": "Омск",
        "line1": "г. Омск, ул. 24-я Северная, 212",
        "line2": "Ежедневно с 10:00 до 20:00",
        "freePlaces": "3",
        "usersInShop": []
    },
    {
        "id": 104,
        "name": "-Парфюм-лидер- Центр торговли «Апельсин»",
        "lat": "54.941227 ",
        "lon": "73.377316",
        "city": "Омск",
        "line1": "г. Омск, ул. Рождественского, 6/1",
        "line2": "Ежедневно с 10:00 до 20:00",
        "freePlaces": "3",
        "usersInShop": []
    },
    {
        "id": 106,
        "name": "-Парфюм-лидер- ул. Бархатовой, 2а",
        "lat": "55.048792 ",
        "lon": "73.325911",
        "city": "Омск",
        "line1": "г. Омск, ул. Бархатовой, 2а",
        "line2": "Ежедневно с 10:00 до 20:00",
        "freePlaces": "3",
        "usersInShop": []
    },
    {
        "id": 107,
        "name": "-Парфюм-лидер- ул. Кирова, 47",
        "lat": "54.946648 ",
        "lon": "73.420719",
        "city": "Омск",
        "line1": "г. Омск, ул. Кирова, 47",
        "line2": "Ежедневно с 10:00 до 20:00",
        "freePlaces": "3",
        "usersInShop": []
    },
    {
        "id": 108,
        "name": "-Парфюм-лидер- ТК «Любимый»",
        "lat": "54.996098",
        "lon": "73.235026",
        "city": "Омск",
        "line1": "г. Омск, ул. Дианова, 24/2",
        "line2": "Ежедневно с 10:00 до 20:00",
        "freePlaces": "3",
        "usersInShop": []
    },
    {
        "id": 109,
        "name": "-Парфюм-лидер- ТК «Алладин»",
        "lat": "54.951078 ",
        "lon": "73.328021",
        "city": "Омск",
        "line1": "г. Омск, ул. 12 Декабря, 115",
        "line2": "Ежедневно с 10:00 до 20:00",
        "freePlaces": "3",
        "usersInShop": []
    },
    {
        "id": 110,
        "name": "-Парфюм-лидер- ул. Серова,16а",
        "lat": "54.947486 ",
        "lon": "73.384022",
        "city": "Омск",
        "line1": "г. Омск, ул. Серова,16а",
        "line2": "Ежедневно с 10:00 до 20:00",
        "freePlaces": "3",
        "usersInShop": []
    },
    {
        "id": 113,
        "name": "-Парфюм-лидер- пр. Карла Маркса, 29",
        "lat": "54.973189 ",
        "lon": "73.382560",
        "city": "Омск",
        "line1": "г. Омск, пр. Карла Маркса, 29",
        "line2": "Ежедневно с 10:00 до 21:00",
        "freePlaces": "3",
        "usersInShop": []
    },
    {
        "id": 117,
        "name": "-Парфюм-лидер- пр. Менделеева, 7",
        "lat": "55.047272 ",
        "lon": "73.305303",
        "city": "Омск",
        "line1": "г. Омск, пр. Менделеева, 7",
        "line2": "Ежедневно с 10:00 до 20:00",
        "freePlaces": "3",
        "usersInShop": []
    },
    {
        "id": 119,
        "name": "-Парфюм-лидер- ул. Ленина,106г",
        "lat": "55.216874 ",
        "lon": "75.962124",
        "city": "Татарск",
        "line1": "г. Татарск, ул. Ленина,106г",
        "line2": "Ежедневно с 10:00 до 20:00",
        "freePlaces": "3",
        "usersInShop": []
    },
    {
        "id": 121,
        "name": "-Парфюм-лидер- ул. Нефтезаводская, 27/1",
        "lat": "55.038294",
        "lon": "73.263468",
        "city": "Омск",
        "line1": "г. Омск, ул. Нефтезаводская, 27/1",
        "line2": "Ежедневно с 10:00 до 20:00",
        "freePlaces": "3",
        "usersInShop": []
    },
    {
        "id": 125,
        "name": "-Парфюм-лидер- пр. Космический, 52в",
        "lat": "54.979358",
        "lon": "73.463436",
        "city": "Омск",
        "line1": "г. Омск, пр. Космический, 52в",
        "line2": "Ежедневно с 09:00 до 19:00",
        "freePlaces": "3",
        "usersInShop": []
    },
    {
        "id": 127,
        "name": "-Парфюм-лидер- ТЦ «АТ-Маркет»",
        "lat": "54.922090 ",
        "lon": "73.459016",
        "city": "Омск",
        "line1": "г. Омск, ул. 6-я Станционная, 2/3",
        "line2": "Ежедневно с 10:00 до 21:00",
        "freePlaces": "3",
        "usersInShop": []
    },
    {
        "id": 128,
        "name": "-Парфюм-лидер- ТЦ «Парад»",
        "lat": "60.125459 ",
        "lon": "64.784449",
        "city": "Урай",
        "line1": "г. Урай, микрорайон «Западный», 20",
        "line2": "Ежедневно с 10:00 до 20:00",
        "freePlaces": "3",
        "usersInShop": []
    },
    {
        "id": 129,
        "name": "-Парфюм-лидер- ТК «Оазис»",
        "lat": "54.993308",
        "lon": "73.257019",
        "city": "Омск",
        "line1": "г. Омск, ул. Лесной проезд, 11",
        "line2": "Ежедневно с 10:00 до 20:00",
        "freePlaces": "3",
        "usersInShop": []
    },
    {
        "id": 131,
        "name": "-Парфюм-лидер- ул. Лермонтова, 130",
        "lat": "54.982842 ",
        "lon": "73.402332",
        "city": "Омск",
        "line1": "г. Омск, ул. Лермонтова, 130",
        "line2": "Ежедневно с 10:00 до 20:00",
        "freePlaces": "3",
        "usersInShop": []
    },
    {
        "id": 132,
        "name": "-Парфюм-лидер- ТК «Яблоко»",
        "lat": "56.865258 ",
        "lon": "60.531727",
        "city": "Екатеринбург",
        "line1": "г. Екатеринбург, ул. Техническая, 37",
        "line2": "Ежедневно с 10:00 до 20:00",
        "freePlaces": "3",
        "usersInShop": []
    },
    {
        "id": 133,
        "name": "-Парфюм-лидер- ул. Солнечная, 30",
        "lat": "55.036043 ",
        "lon": "58.973877",
        "city": "Сатка",
        "line1": "г. Сатка, ул. Солнечная, 30",
        "line2": "Ежедневно с 10:00 до 20:00",
        "freePlaces": "3",
        "usersInShop": []
    },
    {
        "id": 135,
        "name": "-Парфюм-лидер- ТЦ «Планета Дом»",
        "lat": "54.985263 ",
        "lon": "73.314623",
        "city": "Омск",
        "line1": "г. Омск, ул. 70 лет октября, 12/1",
        "line2": "Ежедневно с 10:00 до 21:00",
        "freePlaces": "3",
        "usersInShop": []
    },
    {
        "id": 137,
        "name": "-Парфюм-лидер- «ЦУМ»",
        "lat": "59.605459",
        "lon": "60.586053",
        "city": "Серов",
        "line1": "г. Серов, ул. Ленина, 175",
        "line2": "Ежедневно с 10:00 до 20:00",
        "freePlaces": "3",
        "usersInShop": []
    },
    {
        "id": 139,
        "name": "-Парфюм-лидер- ул. Карла Маркса, 104",
        "lat": "55.350720 ",
        "lon": "78.346226",
        "city": "Барабинск",
        "line1": "г. Барабинск, ул. Карла Маркса, 104",
        "line2": "Ежедневно с 10:00 до 20:00",
        "freePlaces": "3",
        "usersInShop": []
    },
    {
        "id": 140,
        "name": "-Парфюм-лидер- ТК «Кристалл»",
        "lat": "55.447107 ",
        "lon": "78.321988",
        "city": "Куйбышев",
        "line1": "г. Куйбышев, ул. Закраевского, 116",
        "line2": "Ежедневно с 10:00 до 20:00",
        "freePlaces": "3",
        "usersInShop": []
    },
    {
        "id": 141,
        "name": "-Парфюм-лидер- «Раймаг»",
        "lat": "57.682830",
        "lon": "63.058789",
        "city": "Ирбит",
        "line1": "г. Ирбит, ул. Кирова, 80",
        "line2": "Ежедневно с 09:00 до 18:00",
        "freePlaces": "3",
        "usersInShop": []
    },
    {
        "id": 142,
        "name": "-Парфюм-лидер- ул. Гризодубовой, 16",
        "lat": "54.941358",
        "lon": "73.391290",
        "city": "Омск",
        "line1": "г. Омск, ул. Гризодубовой, 16",
        "line2": "Ежедневно с 10:00 до 20:00",
        "freePlaces": "3",
        "usersInShop": []
    },
    {
        "id": 144,
        "name": "-Парфюм-лидер- пр. Победы, 19",
        "lat": "56.420971",
        "lon": "61.919030",
        "city": "Каменск-Уральский",
        "line1": "г. Каменск-Уральский, пр. Победы, 19",
        "line2": "Ежедневно с 10:00 до 20:00",
        "freePlaces": "3",
        "usersInShop": []
    },
    {
        "id": 145,
        "name": "-Парфюм-лидер- ТК «Темп»",
        "lat": "55.034935 ",
        "lon": "73.289462",
        "city": "Омск",
        "line1": "г. Омск, ул. Химиков, 12",
        "line2": "Ежедневно с 10:00 до 20:00",
        "freePlaces": "3",
        "usersInShop": []
    },
    {
        "id": 146,
        "name": "-Парфюм-лидер- ул. Ленина, 22",
        "lat": "60.151561 ",
        "lon": "59.954793",
        "city": "Североуральск",
        "line1": "г. Североуральск, ул. Ленина, 22",
        "line2": "Ежедневно с 10:00 до 20:00",
        "freePlaces": "3",
        "usersInShop": []
    },
    {
        "id": 147,
        "name": "-Парфюм-лидер- ул. Республики, 155",
        "lat": "57.137672 ",
        "lon": "65.570850",
        "city": "Тюмень",
        "line1": "г. Тюмень, ул. Республики, 155",
        "line2": "Ежедневно с 10:00 до 20:00",
        "freePlaces": "3",
        "usersInShop": []
    },
    {
        "id": 148,
        "name": "-Парфюм-лидер- ТРЦ Мега-Центр",
        "lat": "62.139188 ",
        "lon": "65.443139",
        "city": "Нягань",
        "line1": "г. Нягань, ул. Ленина, 5",
        "line2": "Ежедневно с 10:00 до 20:00",
        "freePlaces": "3",
        "usersInShop": []
    },
    {
        "id": 151,
        "name": "-Парфюм-лидер- ТЦ «Большой»",
        "lat": "56.509913",
        "lon": "66.537685",
        "city": "Заводоуковск",
        "line1": "г. Заводоуковск, ул. Первомайская, 9б",
        "line2": "Ежедневно с 09:00 до 19:00",
        "freePlaces": "3",
        "usersInShop": []
    },
    {
        "id": 152,
        "name": "-Парфюм-лидер- ТК \" Гулливер\"",
        "lat": "56.645997 ",
        "lon": "66.298187",
        "city": "Ялуторовск",
        "line1": "г. Ялуторовск, ул. Свободы, 177 строение 1",
        "line2": "Ежедневно с 09:00 до 19:00",
        "freePlaces": "3",
        "usersInShop": []
    },
    {
        "id": 155,
        "name": "-Парфюм-лидер- ул. Омская, 43",
        "lat": "60.931775 ",
        "lon": "76.593583",
        "city": "Нижневартовск",
        "line1": "г. Нижневартовск, ул. Омская, 43",
        "line2": "Ежедневно с 10:00 до 20:00",
        "freePlaces": "3",
        "usersInShop": []
    },
    {
        "id": 159,
        "name": "-Парфюм-лидер- ТРЦ «Строитель»",
        "lat": "56.904958 ",
        "lon": "59.951991",
        "city": "Первоуральск",
        "line1": "г. Первоуральск, пр. Ильича, 31",
        "line2": "Ежедневно с 10:00 до 20:00",
        "freePlaces": "3",
        "usersInShop": []
    },
    {
        "id": 160,
        "name": "-Парфюм-лидер- магазин «Встреча»",
        "lat": "62.130215",
        "lon": "77.456905",
        "city": "Радужный",
        "line1": "г. Радужный, 7-ой микрорайон, 12",
        "line2": "Ежедневно с 10:00 до 20:00",
        "freePlaces": "3",
        "usersInShop": []
    },
    {
        "id": 162,
        "name": "-Парфюм-лидер- ул. Олимпийская, 46/1",
        "lat": "57.112607",
        "lon": "65.592179",
        "city": "Тюмень",
        "line1": "г. Тюмень, ул. Олимпийская, 46/1",
        "line2": "Ежедневно с 10:00 до 20:00",
        "freePlaces": "3",
        "usersInShop": []
    },
    {
        "id": 163,
        "name": "-Парфюм-лидер- ТК «Дачный»",
        "lat": "55.008786 ",
        "lon": "73.346187",
        "city": "Омск",
        "line1": "г. Омск, ул. 2-я Дачная, 1а",
        "line2": "Ежедневно с 10:00 до 20:00",
        "freePlaces": "3",
        "usersInShop": []
    },
    {
        "id": 165,
        "name": "-Парфюм-лидер- ТК \"Сосна\"",
        "lat": "60.734072 ",
        "lon": "77.610093",
        "city": "Стрежевой",
        "line1": "г. Стрежевой, ул. Коммунальная, 53",
        "line2": "Ежедневно с 10:00 до 20:00",
        "freePlaces": "3",
        "usersInShop": []
    },
    {
        "id": 167,
        "name": "-Парфюм-лидер- ул. Мельникайте, 95",
        "lat": "57.141078 ",
        "lon": "65.575367",
        "city": "Тюмень",
        "line1": "г. Тюмень, ул. Мельникайте, 95",
        "line2": "Ежедневно с 10:00 до 21:00",
        "freePlaces": "3",
        "usersInShop": []
    },
    {
        "id": 169,
        "name": "-Парфюм-лидер- ТЦ Райт",
        "lat": "57.903844",
        "lon": "59.997190",
        "city": "Нижний Тагил",
        "line1": "г. Нижний Тагил, ул. Садовая, 81",
        "line2": "Ежедневно с 10:00 до 20:00",
        "freePlaces": "3",
        "usersInShop": []
    },
    {
        "id": 170,
        "name": "-Парфюм-лидер- пр. Мира, 46",
        "lat": "55.029589",
        "lon": "73.285713",
        "city": "Омск",
        "line1": "г. Омск, пр. Мира, 46",
        "line2": "Ежедневно с 10:00 до 20:00",
        "freePlaces": "3",
        "usersInShop": []
    },
    {
        "id": 171,
        "name": "-Парфюм-лидер- универсам «Пышма»",
        "lat": "57.128265 ",
        "lon": "65.522872",
        "city": "Тюмень",
        "line1": "г. Тюмень, Червишевский тракт, 66",
        "line2": "Ежедневно с 10:00 до 21:00",
        "freePlaces": "3",
        "usersInShop": []
    },
    {
        "id": 172,
        "name": "-Парфюм-лидер- ул. Центральная, 17а",
        "lat": "60.757977",
        "lon": "72.837053",
        "city": "Пыть-Ях",
        "line1": "г. Пыть-Ях, ул. Центральная, 17а",
        "line2": "Ежедневно с 10:00 до 20:00",
        "freePlaces": "3",
        "usersInShop": []
    },
    {
        "id": 175,
        "name": "-Парфюм-лидер- ТЦ «Арбат»",
        "lat": "58.228760",
        "lon": "68.284472",
        "city": "Тобольск",
        "line1": "г. Тобольск, 9 микрорайон, 25а",
        "line2": "Ежедневно с 10:00 до 21:00",
        "freePlaces": "3",
        "usersInShop": []
    },
    {
        "id": 176,
        "name": "-Парфюм-лидер- ТД «Малов»",
        "lat": "54.442704 ",
        "lon": "61.270620",
        "city": "Южноуральск",
        "line1": "г. Южноуральск, ул. Мира, 43в",
        "line2": "Ежедневно с 10:00 до 20:00",
        "freePlaces": "3",
        "usersInShop": []
    },
    {
        "id": 179,
        "name": "-Парфюм-лидер- ул. Каменская, 16",
        "lat": "56.384436 ",
        "lon": "61.967600",
        "city": "Каменск-Уральский",
        "line1": "г. Каменск-Уральский, ул. Каменская, 16",
        "line2": "Ежедневно с 10:00 до 20:00",
        "freePlaces": "3",
        "usersInShop": []
    },
    {
        "id": 180,
        "name": "-Парфюм-лидер- ул. Моторостроителей, 4а",
        "lat": "57.107196 ",
        "lon": "65.608169",
        "city": "Тюмень",
        "line1": "г. Тюмень, ул. Моторостроителей, 4а",
        "line2": "Ежедневно с 10:00 до 20:00",
        "freePlaces": "3",
        "usersInShop": []
    },
    {
        "id": 184,
        "name": "-Парфюм-лидер- ТК «Строитель»",
        "lat": "61.250781 ",
        "lon": "73.409472",
        "city": "Сургут",
        "line1": "г. Сургут, ул. 30 лет Победы, 7/1",
        "line2": "Ежедневно с 10:00 до 20:00",
        "freePlaces": "3",
        "usersInShop": []
    },
    {
        "id": 186,
        "name": "-Парфюм-лидер- ул. Промышленная, д. 3 А",
        "lat": "64.913969 ",
        "lon": "77.776442",
        "city": "Тарко-Сале",
        "line1": "г. Тарко-Сале, ул. Промышленная, д. 3 А",
        "line2": "Ежедневно с 10:00 до 20:00",
        "freePlaces": "3",
        "usersInShop": []
    },
    {
        "id": 195,
        "name": "-Парфюм-лидер- ТЦ «Айнур»",
        "lat": "61.605495",
        "lon": "73.722391",
        "city": "Федоровский",
        "line1": "пгт. Федоровский, ул. Ленина, 12/2",
        "line2": "Ежедневно с 10:00 до 20:00",
        "freePlaces": "3",
        "usersInShop": []
    },
    {
        "id": 198,
        "name": "-Парфюм-лидер- ул. Ленина, 33 П-1",
        "lat": "60.149837",
        "lon": "59.952251",
        "city": "Североуральск",
        "line1": "г. Североуральск, ул. Ленина, 33 П-1",
        "line2": "Ежедневно с 10:00 до 20:00",
        "freePlaces": "3",
        "usersInShop": []
    },
    {
        "id": 200,
        "name": "-- г. Омск, 988 Интернет магазин",
        "lat": "",
        "lon": "",
        "city": "Омск",
        "line1": "г. Омск, г. Омск, 988 Интернет магазин",
        "line2": "Ежедневно с  до 20:00",
        "freePlaces": "3",
        "usersInShop": []
    },
    {
        "id": 202,
        "name": "-Парфюм-лидер- 2-й микрорайон, 89А",
        "lat": "60.129865",
        "lon": "64.804330",
        "city": "Урай",
        "line1": "г. Урай, 2-й микрорайон, 89А",
        "line2": "Ежедневно с 10:00 до 20:00",
        "freePlaces": "3",
        "usersInShop": []
    },
    {
        "id": 203,
        "name": "-Парфюм-лидер- ул. Заречная,15",
        "lat": "61.033896",
        "lon": "76.100761",
        "city": "Мегион",
        "line1": "г. Мегион, ул. Заречная,15",
        "line2": "Ежедневно с 10:00 до 20:00",
        "freePlaces": "3",
        "usersInShop": []
    },
    {
        "id": 204,
        "name": "-Парфюм-лидер- ул. Муравленко, 26",
        "lat": "63.799002",
        "lon": "74.500520",
        "city": "Муравленко",
        "line1": "г. Муравленко, ул. Муравленко, 26",
        "line2": "Ежедневно с 10:00 до 21:00",
        "freePlaces": "3",
        "usersInShop": []
    },
    {
        "id": 205,
        "name": "-Парфюм-лидер- ТРЦ «Оазис Плаза»",
        "lat": "63.723335",
        "lon": "66.672080",
        "city": "Белоярский",
        "line1": "г. Белоярский, ул. Мира, 1",
        "line2": "Ежедневно с 10:00 до 22:00",
        "freePlaces": "3",
        "usersInShop": []
    },
    {
        "id": 206,
        "name": "-Marafett- ул. Машиностроительная, 66",
        "lat": "54.914561",
        "lon": "73.442682",
        "city": "Омск",
        "line1": "г. Омск, ул. Машиностроительная, 66",
        "line2": "Ежедневно с 10:00 до 20:00",
        "freePlaces": "3",
        "usersInShop": []
    },
    {
        "id": 207,
        "name": "-Marafett- Верхнеднепровская, 274",
        "lat": "54.986485",
        "lon": "73.203075",
        "city": "Омск",
        "line1": "г. Омск, Верхнеднепровская, 274",
        "line2": "Ежедневно с 10:00 до 20:00",
        "freePlaces": "3",
        "usersInShop": []
    },
    {
        "id": 208,
        "name": "-Marafett- Красноармейская, 32а",
        "lat": "56.094826",
        "lon": "74.629456",
        "city": "Большеречье",
        "line1": "рп. Большеречье, Красноармейская, 32а",
        "line2": "Ежедневно с 09:00 до 19:00",
        "freePlaces": "3",
        "usersInShop": []
    },
    {
        "id": 209,
        "name": "-Marafett- ул. Лобкова, 6/1",
        "lat": "54.937820",
        "lon": "73.381112",
        "city": "Омск",
        "line1": "г. Омск, ул. Лобкова, 6/1",
        "line2": "Ежедневно с 09:00 до 20:00",
        "freePlaces": "3",
        "usersInShop": []
    },
    {
        "id": 210,
        "name": "-Marafett- ул. Молодежная 10 А",
        "lat": "54.927372",
        "lon": "73.240930",
        "city": "Магистральный",
        "line1": "п. Магистральный, ул. Молодежная 10 А",
        "line2": "Ежедневно с 09:00 до 20:00",
        "freePlaces": "3",
        "usersInShop": []
    },
    {
        "id": 211,
        "name": "-Marafett- Свердлова,64",
        "lat": "57.434193",
        "lon": "60.059788",
        "city": "Кировград",
        "line1": "г. Кировград, Свердлова,64",
        "line2": "Ежедневно с 10:00 до 20:00",
        "freePlaces": "3",
        "usersInShop": []
    },
    {
        "id": 212,
        "name": "-Marafett- Пр-кт Октябрьский, д. 2 к 1",
        "lat": "57.491679",
        "lon": "60.219562",
        "city": "Невьянск",
        "line1": "г. Невьянск, Пр-кт Октябрьский, д. 2 к 1",
        "line2": "Ежедневно с 10:00 до 20:00",
        "freePlaces": "3",
        "usersInShop": []
    },
    {
        "id": 213,
        "name": "-Marafett- Советская,96",
        "lat": "57.696788",
        "lon": "71.172172",
        "city": "Усть-Ишим",
        "line1": "с. Усть-Ишим, Советская,96",
        "line2": "Ежедневно с 09:00 до 18:00",
        "freePlaces": "3",
        "usersInShop": []
    },
    {
        "id": 214,
        "name": "-Marafett- Карла Маркса,60",
        "lat": "56.109717",
        "lon": "69.493976",
        "city": "Ишим",
        "line1": "г. Ишим, Карла Маркса,60",
        "line2": "Ежедневно с 09:00 до 20:00",
        "freePlaces": "3",
        "usersInShop": []
    },
    {
        "id": 216,
        "name": "-Marafett- ул. 2-Челюскинцев, 9А",
        "lat": "55.010323",
        "lon": "73.408825",
        "city": "Омск",
        "line1": "г. Омск, ул. 2-Челюскинцев, 9А",
        "line2": "Ежедневно с 09:00 до 20:00",
        "freePlaces": "3",
        "usersInShop": []
    },
    {
        "id": 217,
        "name": "-Marafett- Советская, 19",
        "lat": "56.946732",
        "lon": "75.299563",
        "city": "Седельниково",
        "line1": "с. Седельниково, Советская, 19",
        "line2": "Ежедневно с 09:00 до 18:00",
        "freePlaces": "3",
        "usersInShop": []
    },
    {
        "id": 218,
        "name": "-Marafett- ул. 6-Станционная, 149",
        "lat": "54.926580",
        "lon": "73.497462",
        "city": "Омск",
        "line1": "г. Омск, ул. 6-Станционная, 149",
        "line2": "Ежедневно с 10:00 до 20:00",
        "freePlaces": "3",
        "usersInShop": []
    },
    {
        "id": 220,
        "name": "-Marafett- Пр. Маркса, 60",
        "lat": "54.947646",
        "lon": "73.386214",
        "city": "Омск",
        "line1": "г. Омск, Пр. Маркса, 60",
        "line2": "Ежедневно с 10:00 до 20:00",
        "freePlaces": "3",
        "usersInShop": []
    },
    {
        "id": 221,
        "name": "-Marafett- ТК \"Тара\"",
        "lat": "54.987988",
        "lon": "73.425066",
        "city": "Омск",
        "line1": "г. Омск, ул. 20-Линия, 61/1",
        "line2": "Ежедневно с 09:00 до 19:00",
        "freePlaces": "3",
        "usersInShop": []
    },
    {
        "id": 222,
        "name": "-Marafett- ул. Маяковского, 65",
        "lat": "54.971621 ",
        "lon": "73.395988",
        "city": "Омск",
        "line1": "г. Омск, ул. Маяковского, 65",
        "line2": "Ежедневно с 10:00 до 19:30",
        "freePlaces": "3",
        "usersInShop": []
    },
    {
        "id": 223,
        "name": "-Marafett- ул. Пономаренко, 2",
        "lat": "54.976891",
        "lon": "73.470063",
        "city": "Омск",
        "line1": "г. Омск, ул. Пономаренко, 2",
        "line2": "Ежедневно с 10:00 до 19:00",
        "freePlaces": "3",
        "usersInShop": []
    },
    {
        "id": 224,
        "name": "-Marafett- ул. Бархатовой, 4",
        "lat": "55.047750 ",
        "lon": "73.325767",
        "city": "Омск",
        "line1": "г. Омск, ул. Бархатовой, 4",
        "line2": "Ежедневно с 09:00 до 20:00",
        "freePlaces": "3",
        "usersInShop": []
    },
    {
        "id": 225,
        "name": "-Marafett- Петра Великого,1",
        "lat": "62.139113",
        "lon": "65.442843",
        "city": "Нягань",
        "line1": "г. Нягань, Петра Великого,1",
        "line2": "Ежедневно с 10:00 до 20:00",
        "freePlaces": "3",
        "usersInShop": []
    },
    {
        "id": 226,
        "name": "-Marafett- Луначарского,75А",
        "lat": "57.010852",
        "lon": "63.731813",
        "city": "Талица",
        "line1": "г. Талица, Луначарского,75А",
        "line2": "Ежедневно с 09:00 до 19:00",
        "freePlaces": "3",
        "usersInShop": []
    },
    {
        "id": 227,
        "name": "-Marafett- Советская, 174А",
        "lat": "56.257658 ",
        "lon": "62.934109",
        "city": "Далматово",
        "line1": "г. Далматово, Советская, 174А",
        "line2": "Ежедневно с 09:00 до 19:00",
        "freePlaces": "3",
        "usersInShop": []
    },
    {
        "id": 228,
        "name": "-Marafett- ул.Партизанская 46 пом1",
        "lat": "54.220247",
        "lon": "83.371501",
        "city": "Черепаново",
        "line1": "г. Черепаново, ул.Партизанская 46 пом1",
        "line2": "Ежедневно с 09:00 до 19:00",
        "freePlaces": "3",
        "usersInShop": []
    },
    {
        "id": 229,
        "name": "-Marafett- ул. Кирова,16",
        "lat": "55.348662",
        "lon": "78.369196",
        "city": "Барабинск",
        "line1": "г. Барабинск, ул. Кирова,16",
        "line2": "Ежедневно с 09:00 до 19:00",
        "freePlaces": "3",
        "usersInShop": []
    },
    {
        "id": 230,
        "name": "-Marafett- Советов,4",
        "lat": "54.360354",
        "lon": "77.283402",
        "city": "Купино",
        "line1": "г. Купино, Советов,4",
        "line2": "Ежедневно с 09:00 до 19:00",
        "freePlaces": "3",
        "usersInShop": []
    },
    {
        "id": 231,
        "name": "-Marafett- Ленина,103Впом.3",
        "lat": "55.215508",
        "lon": "75.958836",
        "city": "Татарск",
        "line1": "г. Татарск, Ленина,103Впом.3",
        "line2": "Ежедневно с 09:00 до 19:00",
        "freePlaces": "3",
        "usersInShop": []
    },
    {
        "id": 233,
        "name": "-Marafett- Кондратьева,4",
        "lat": "55.525237",
        "lon": "70.335284",
        "city": "Сладково",
        "line1": "с. Сладково, Кондратьева,4",
        "line2": "Ежедневно с 10:00 до 19:00",
        "freePlaces": "3",
        "usersInShop": []
    },
    {
        "id": 234,
        "name": "-Marafett- ул. Дмитриева, 5/5, пом.1П",
        "lat": "54.986413 ",
        "lon": "73.315481",
        "city": "Омск",
        "line1": "г. Омск, ул. Дмитриева, 5/5, пом.1П",
        "line2": "Ежедневно с 09:00 до 20:00",
        "freePlaces": "3",
        "usersInShop": []
    },
    {
        "id": 236,
        "name": "-Marafett- Красноармейская,2В",
        "lat": "54.172873",
        "lon": "74.693119",
        "city": "Нововаршавка",
        "line1": "рп. Нововаршавка, Красноармейская,2В",
        "line2": "Ежедневно с 09:00 до 19:00",
        "freePlaces": "3",
        "usersInShop": []
    },
    {
        "id": 237,
        "name": "-Marafett- ул. Березовая, д.10/1 А",
        "lat": "55.155582",
        "lon": "73.214483",
        "city": "Ключи",
        "line1": "п. Ключи, ул. Березовая, д.10/1 А",
        "line2": "Ежедневно с 09:00 до 20:00",
        "freePlaces": "3",
        "usersInShop": []
    },
    {
        "id": 239,
        "name": "-Marafett- Пушкина,80",
        "lat": "54.632192",
        "lon": "83.304989",
        "city": "Искитим",
        "line1": "г. Искитим, Пушкина,80",
        "line2": "Ежедневно с 09:00 до 19:00",
        "freePlaces": "3",
        "usersInShop": []
    },
    {
        "id": 240,
        "name": "-Marafett- пер.Майский,1",
        "lat": "55.307747",
        "lon": "79.681931",
        "city": "Убинское",
        "line1": "с. Убинское, пер.Майский,1",
        "line2": "Ежедневно с 09:00 до 19:00",
        "freePlaces": "3",
        "usersInShop": []
    },
    {
        "id": 241,
        "name": "-Marafett- Комсомольская,27",
        "lat": "56.086404",
        "lon": "63.628911",
        "city": "Шадринск",
        "line1": "г. Шадринск, Комсомольская,27",
        "line2": "Ежедневно с 10:00 до 18:00",
        "freePlaces": "3",
        "usersInShop": []
    },
    {
        "id": 242,
        "name": "-Marafett- ул. Ватутина, 13А",
        "lat": "54.985659",
        "lon": "73.279405",
        "city": "Омск",
        "line1": "г. Омск, ул. Ватутина, 13А",
        "line2": "Ежедневно с 10:00 до 21:00",
        "freePlaces": "3",
        "usersInShop": []
    },
    {
        "id": 243,
        "name": "-Marafett- Мичурина,15",
        "lat": "55.021524",
        "lon": "73.410639",
        "city": "Называевск",
        "line1": "г. Называевск, Мичурина,15",
        "line2": "Ежедневно с 09:00 до 20:00",
        "freePlaces": "3",
        "usersInShop": []
    },
    {
        "id": 244,
        "name": "-Marafett- ул. 6-ая Линия, 68 ",
        "lat": "56.889223",
        "lon": "74.368297",
        "city": "Омск",
        "line1": "г. Омск, ул. 6-ая Линия, 68 ",
        "line2": "Ежедневно с 10:00 до 20:00",
        "freePlaces": "3",
        "usersInShop": []
    },
    {
        "id": 245,
        "name": "-Marafett- Завертяева,18/3",
        "lat": "55.032666",
        "lon": "73.446069",
        "city": "Омск",
        "line1": "г. Омск, Завертяева,18/3",
        "line2": "Ежедневно с 09:00 до 20:00",
        "freePlaces": "3",
        "usersInShop": []
    },
    {
        "id": 246,
        "name": "-Marafett- ул. Мелиоративная,9",
        "lat": "56.138669",
        "lon": "69.526674",
        "city": "Стрехнино",
        "line1": "с. Стрехнино, ул. Мелиоративная,9",
        "line2": "Ежедневно с 09:00 до 20:00",
        "freePlaces": "3",
        "usersInShop": []
    },
    {
        "id": 247,
        "name": "-Marafett- ул. Кирова, 53",
        "lat": "54.942899",
        "lon": "73.425578",
        "city": "Омск",
        "line1": "г. Омск, ул. Кирова, 53",
        "line2": "Ежедневно с 10:00 до 20:00",
        "freePlaces": "3",
        "usersInShop": []
    },
    {
        "id": 248,
        "name": "-Marafett- ул. 22 Апреля, 24",
        "lat": "55.041952  ",
        "lon": "73.278120",
        "city": "Омск",
        "line1": "г. Омск, ул. 22 Апреля, 24",
        "line2": "Ежедневно с 9:30 до 20:30",
        "freePlaces": "3",
        "usersInShop": []
    },
    {
        "id": 249,
        "name": "-Marafett- ул. Крупской, 9/2",
        "lat": "55.000884 ",
        "lon": "73.293912",
        "city": "Омск",
        "line1": "г. Омск, ул. Крупской, 9/2",
        "line2": "Ежедневно с 10:00 до 20:00",
        "freePlaces": "3",
        "usersInShop": []
    },
    {
        "id": 250,
        "name": "-Marafett- ул. Мира, 42/1",
        "lat": "55.028522",
        "lon": "73.288100",
        "city": "Омск",
        "line1": "г. Омск, ул. Мира, 42/1",
        "line2": "Ежедневно с 10:00 до 21:00",
        "freePlaces": "3",
        "usersInShop": []
    },
    {
        "id": 251,
        "name": "-Marafett- ул. Химиков, 20",
        "lat": "55.041003",
        "lon": "73.293409",
        "city": "Омск",
        "line1": "г. Омск, ул. Химиков, 20",
        "line2": "Ежедневно с 09:00 до 20:00",
        "freePlaces": "3",
        "usersInShop": []
    },
    {
        "id": 252,
        "name": "-Marafett- ул. Ватутина, 5",
        "lat": "54.988861",
        "lon": "73.274383",
        "city": "Омск",
        "line1": "г. Омск, ул. Ватутина, 5",
        "line2": "Ежедневно с 09:00 до 20:00",
        "freePlaces": "3",
        "usersInShop": []
    },
    {
        "id": 253,
        "name": "-Marafett- Камерный переулок, 49А",
        "lat": "54.953783",
        "lon": "73.460658",
        "city": "Омск",
        "line1": "г. Омск, Камерный переулок, 49А",
        "line2": "Ежедневно с 09:00 до 20:00",
        "freePlaces": "3",
        "usersInShop": []
    },
    {
        "id": 254,
        "name": "-Marafett- ул. 75 Гвардейской бригады, 1Г",
        "lat": "54.972385 ",
        "lon": "73.471842",
        "city": "Омск",
        "line1": "г. Омск, ул. 75 Гвардейской бригады, 1Г",
        "line2": "Ежедневно с 10:00 до 20:00",
        "freePlaces": "3",
        "usersInShop": []
    },
    {
        "id": 255,
        "name": "-Marafett- ул. Лобкова, 3",
        "lat": "54.938586",
        "lon": "73.383403",
        "city": "Омск",
        "line1": "г. Омск, ул. Лобкова, 3",
        "line2": "Ежедневно с 09:00 до 20:30",
        "freePlaces": "3",
        "usersInShop": []
    },
    {
        "id": 256,
        "name": "-Marafett- ул. Масленникова, 181",
        "lat": "54.975822  ",
        "lon": "73.422479",
        "city": "Омск",
        "line1": "г. Омск, ул. Масленникова, 181",
        "line2": "Ежедневно с 09:00 до 21:00",
        "freePlaces": "3",
        "usersInShop": []
    },
    {
        "id": 257,
        "name": "-Marafett- ул. Гашека, 3 Марафет",
        "lat": "54.907874  ",
        "lon": "73.452195",
        "city": "Омск",
        "line1": "г. Омск, ул. Гашека, 3 Марафет",
        "line2": "Ежедневно с 10:00 до 20:00",
        "freePlaces": "3",
        "usersInShop": []
    },
    {
        "id": 258,
        "name": "-Marafett- ул. Взлетная,15",
        "lat": "54.999413",
        "lon": "73.303821",
        "city": "Омск",
        "line1": "г. Омск, ул. Взлетная,15",
        "line2": "Ежедневно с 10:00 до 20:00",
        "freePlaces": "3",
        "usersInShop": []
    },
    {
        "id": 259,
        "name": "-Marafett- ул. Дианова, 16/2",
        "lat": "54.996149 ",
        "lon": "73.248709",
        "city": "Омск",
        "line1": "г. Омск, ул. Дианова, 16/2",
        "line2": "Ежедневно с 10:00 до 20:00",
        "freePlaces": "3",
        "usersInShop": []
    },
    {
        "id": 260,
        "name": "-Marafett- ул. Фугенфирова, 3",
        "lat": "54.995493",
        "lon": "73.265238",
        "city": "Омск",
        "line1": "г. Омск, ул. Фугенфирова, 3",
        "line2": "Ежедневно с 10:00 до 20:00",
        "freePlaces": "3",
        "usersInShop": []
    },
    {
        "id": 261,
        "name": "-Marafett- ул. 2-я Солнечная, 28",
        "lat": "54.997058 ",
        "lon": "73.220268",
        "city": "Омск",
        "line1": "г. Омск, ул. 2-я Солнечная, 28",
        "line2": "Ежедневно с 10:00 до 20:00",
        "freePlaces": "3",
        "usersInShop": []
    },
    {
        "id": 262,
        "name": "-Marafett- ул. Мира проспект, 69, корпус 3",
        "lat": "55.027232",
        "lon": "73.251206",
        "city": "Омск",
        "line1": "г. Омск, ул. Мира проспект, 69, корпус 3",
        "line2": "Ежедневно с 9:30 до 19:00",
        "freePlaces": "3",
        "usersInShop": []
    },
    {
        "id": 263,
        "name": "-Marafett- ул. Серова, 21",
        "lat": "54.939196",
        "lon": "73.381480",
        "city": "Омск",
        "line1": "г. Омск, ул. Серова, 21",
        "line2": "Ежедневно с 09:00 до 20:00",
        "freePlaces": "3",
        "usersInShop": []
    },
    {
        "id": 264,
        "name": "-Marafett- ул. Завертяева, 23/4",
        "lat": "55.033914",
        "lon": "73.454576",
        "city": "Омск",
        "line1": "г. Омск, ул. Завертяева, 23/4",
        "line2": "Ежедневно с 09:00 до 20:00",
        "freePlaces": "3",
        "usersInShop": []
    },
    {
        "id": 265,
        "name": "-Marafett- ул. Железнодорожная, 6",
        "lat": "55.070819",
        "lon": "67.881859",
        "city": "Петухово",
        "line1": "г. Петухово, ул. Железнодорожная, 6",
        "line2": "Ежедневно с 09:00 до 20:00",
        "freePlaces": "3",
        "usersInShop": []
    },
    {
        "id": 266,
        "name": "-Marafett- ул. Комарова, 6",
        "lat": "54.997223",
        "lon": "73.284660",
        "city": "Омск",
        "line1": "г. Омск, ул. Комарова, 6",
        "line2": "Ежедневно с 09:00 до 18:00",
        "freePlaces": "3",
        "usersInShop": []
    },
    {
        "id": 267,
        "name": "-Marafett- ул.  Нефтезаводская, 17",
        "lat": "55.033192",
        "lon": "73.267735",
        "city": "Омск",
        "line1": "г. Омск, ул.  Нефтезаводская, 17",
        "line2": "Ежедневно с 09:00 до 20:00",
        "freePlaces": "3",
        "usersInShop": []
    },
    {
        "id": 268,
        "name": "-Marafett- ул. Бакинских Комиссаров,7",
        "lat": "57.158989  ",
        "lon": "65.479917",
        "city": "Тюмень",
        "line1": "г. Тюмень, ул. Бакинских Комиссаров,7",
        "line2": "Ежедневно с 9:00 до 19:00",
        "freePlaces": "3",
        "usersInShop": []
    },
    {
        "id": 269,
        "name": "-Marafett- ул. Алтайская, 33",
        "lat": "55.017576 ",
        "lon": "73.428794",
        "city": "Омск",
        "line1": "г. Омск, ул. Алтайская, 33",
        "line2": "Ежедневно с 09:00 до 20:00",
        "freePlaces": "3",
        "usersInShop": []
    },
    {
        "id": 270,
        "name": "-Marafett- ул. Бетховена, 22/2",
        "lat": "54.932467",
        "lon": "73.331767",
        "city": "Омск",
        "line1": "г. Омск, ул. Бетховена, 22/2",
        "line2": "Ежедневно с 09:00 до 19:00",
        "freePlaces": "3",
        "usersInShop": []
    },
    {
        "id": 271,
        "name": "-Marafett- ул. Листвянская, 6В",
        "lat": "54.459541",
        "lon": "83.372758",
        "city": "Линево",
        "line1": "рп. Линево, ул. Листвянская, 6В",
        "line2": "Ежедневно с 09:00 до 20:00",
        "freePlaces": "3",
        "usersInShop": []
    },
    {
        "id": 272,
        "name": "-Marafett- ул.Молодогвардейская, 5",
        "lat": "54.925468 ",
        "lon": "73.454567",
        "city": "Омск",
        "line1": "г. Омск, ул.Молодогвардейская, 5",
        "line2": "Ежедневно с 10:00 до 20:00",
        "freePlaces": "3",
        "usersInShop": []
    },
    {
        "id": 273,
        "name": "-Marafett- ул. Ленина, 68",
        "lat": "56.893023",
        "lon": "74.381826",
        "city": "Тара",
        "line1": "г. Тара, ул. Ленина, 68",
        "line2": "Ежедневно с 10:00 до 19:00",
        "freePlaces": "3",
        "usersInShop": []
    },
    {
        "id": 275,
        "name": "-Marafett- Шоссейная, 57А",
        "lat": "56.476921  ",
        "lon": "67.666758",
        "city": "Омутинское",
        "line1": "с. Омутинское, Шоссейная, 57А",
        "line2": "Ежедневно с 10:00 до 19:00",
        "freePlaces": "3",
        "usersInShop": []
    },
    {
        "id": 276,
        "name": "-Marafett- ул. Федюнинского, 58/2 пом. 5п\t",
        "lat": "57.100465",
        "lon": "65.565167",
        "city": "Тюмень",
        "line1": "г. Тюмень, ул. Федюнинского, 58/2 пом. 5п\t",
        "line2": "Ежедневно с 10:00 до 21:00",
        "freePlaces": "3",
        "usersInShop": []
    },
    {
        "id": 277,
        "name": "-Marafett- ул. Майорова,9",
        "lat": "54.949285  ",
        "lon": "73.033131",
        "city": "Лузино",
        "line1": "с. Лузино, ул. Майорова,9",
        "line2": "Ежедневно с 9:00 до 19:00",
        "freePlaces": "3",
        "usersInShop": []
    },
    {
        "id": 278,
        "name": "-Marafett- ул. Тарская, 13 А",
        "lat": "54.993071",
        "lon": "73.368023",
        "city": "Омск",
        "line1": "г. Омск, ул. Тарская, 13 А",
        "line2": "Ежедневно с 10:00 до 20:00",
        "freePlaces": "3",
        "usersInShop": []
    },
    {
        "id": 281,
        "name": "-Marafett- Бульвар Архитекторов, д.1, корпус 5",
        "lat": "54.992560 ",
        "lon": "73.312256",
        "city": "Омск",
        "line1": "г. Омск, Бульвар Архитекторов, д.1, корпус 5",
        "line2": "Ежедневно с 10:00 до 20:00",
        "freePlaces": "3",
        "usersInShop": []
    },
    {
        "id": 282,
        "name": "-Marafett- ул. 33-Северная, 27",
        "lat": "55.030942",
        "lon": "73.384498",
        "city": "Омск",
        "line1": "г. Омск, ул. 33-Северная, 27",
        "line2": "Ежедневно с 09:00 до 20:30",
        "freePlaces": "3",
        "usersInShop": []
    },
    {
        "id": 283,
        "name": "-Marafett- ул. Омская, 158",
        "lat": "54.991635",
        "lon": "73.429342",
        "city": "Омск",
        "line1": "г. Омск, ул. Омская, 158",
        "line2": "Ежедневно с 10:00 до 20:00",
        "freePlaces": "3",
        "usersInShop": []
    },
    {
        "id": 284,
        "name": "-Marafett- Бульвар Зеленый, 4",
        "lat": "55.002516",
        "lon": "73.288172",
        "city": "Омск",
        "line1": "г. Омск, Бульвар Зеленый, 4",
        "line2": "Ежедневно с 09:00 до 21:00",
        "freePlaces": "3",
        "usersInShop": []
    },
    {
        "id": 285,
        "name": "-Marafett- ул. Богдана Хмельницкого, 188А",
        "lat": "54.965786 ",
        "lon": "73.412715",
        "city": "Омск",
        "line1": "г. Омск, ул. Богдана Хмельницкого, 188А",
        "line2": "Ежедневно с 09:00 до 20:00",
        "freePlaces": "3",
        "usersInShop": []
    },
    {
        "id": 286,
        "name": "-Marafett- ул. Рождественского, 6 МАРАФЕТ",
        "lat": "54.941011",
        "lon": "73.378138",
        "city": "Омск",
        "line1": "г. Омск, ул. Рождественского, 6 МАРАФЕТ",
        "line2": "Ежедневно с 09:00 до 18:00",
        "freePlaces": "3",
        "usersInShop": []
    },
    {
        "id": 287,
        "name": "-Marafett- ул. Химиков, 32",
        "lat": "55.043876",
        "lon": "73.295862",
        "city": "Омск",
        "line1": "г. Омск, ул. Химиков, 32",
        "line2": "Ежедневно с 10:00 до 20:00",
        "freePlaces": "3",
        "usersInShop": []
    },
    {
        "id": 288,
        "name": "-Marafett- ул. Нефтезаводская, 28/3",
        "lat": "55.037325",
        "lon": "73.267322",
        "city": "Омск",
        "line1": "г. Омск, ул. Нефтезаводская, 28/3",
        "line2": "Ежедневно с 10:00 до 20:00",
        "freePlaces": "3",
        "usersInShop": []
    },
    {
        "id": 289,
        "name": "-Marafett- ул. Кирова,12",
        "lat": "54.945748 ",
        "lon": "73.419524",
        "city": "Омск",
        "line1": "г. Омск, ул. Кирова,12",
        "line2": "Ежедневно с 09:00 до 20:00",
        "freePlaces": "3",
        "usersInShop": []
    },
    {
        "id": 290,
        "name": "-Marafett- ул. Гуртьева, 17",
        "lat": "54.920015",
        "lon": "73.404163",
        "city": "Омск",
        "line1": "г. Омск, ул. Гуртьева, 17",
        "line2": "Ежедневно с 10:00 до 20:00",
        "freePlaces": "3",
        "usersInShop": []
    },
    {
        "id": 291,
        "name": "-Marafett- ул. Советская, 73",
        "lat": "56.905509 ",
        "lon": "74.358128",
        "city": "Тара",
        "line1": "г. Тара, ул. Советская, 73",
        "line2": "Ежедневно с 10:00 до 19:00",
        "freePlaces": "3",
        "usersInShop": []
    },
    {
        "id": 292,
        "name": "-Marafett- ул. Октябрьская, 58Б",
        "lat": "55.154218 ",
        "lon": "72.689158",
        "city": "Любинский",
        "line1": "рп. Любинский, ул. Октябрьская, 58Б",
        "line2": "Ежедневно с 9:00 до 19:00",
        "freePlaces": "3",
        "usersInShop": []
    },
    {
        "id": 293,
        "name": "-Marafett- г. Калачинск, ул. Петра Ильичева, 11",
        "lat": "55.056043",
        "lon": "74.586453",
        "city": "Калачинск",
        "line1": "г. Калачинск, г. Калачинск, ул. Петра Ильичева, 11",
        "line2": "Ежедневно с 9:00 до 19:00",
        "freePlaces": "3",
        "usersInShop": []
    },
    {
        "id": 294,
        "name": "-Marafett- ТЦ \"Кристалл\"",
        "lat": "55.952525 ",
        "lon": "64.436416",
        "city": "Каргаполье",
        "line1": "рп. Каргаполье, Ленинградский переулок, 15",
        "line2": "Ежедневно с 09:00 до 19:00",
        "freePlaces": "3",
        "usersInShop": []
    },
    {
        "id": 295,
        "name": "-Marafett- 21 Амурская, 20Г",
        "lat": "55.028878 ",
        "lon": "73.416281",
        "city": "Омск",
        "line1": "г. Омск, 21 Амурская, 20Г",
        "line2": "Ежедневно с 10:00 до 20:00",
        "freePlaces": "3",
        "usersInShop": []
    },
    {
        "id": 296,
        "name": "-Marafett- ул. Лисицкого, 5",
        "lat": "54.997703",
        "lon": "73.241918",
        "city": "Омск",
        "line1": "г. Омск, ул. Лисицкого, 5",
        "line2": "Ежедневно с 09:00 до 20:00",
        "freePlaces": "3",
        "usersInShop": []
    },
    {
        "id": 297,
        "name": "-Marafett- ул. Артиллерийская,117",
        "lat": "55.163826 ",
        "lon": "61.435621",
        "city": "Челябинск",
        "line1": "г. Челябинск, ул. Артиллерийская,117",
        "line2": "Ежедневно с 10:00 до 20:00",
        "freePlaces": "3",
        "usersInShop": []
    },
    {
        "id": 298,
        "name": "-Marafett- ул.Ленинградская,41",
        "lat": "57.012901",
        "lon": "61.447649",
        "city": "Асбест",
        "line1": "г. Асбест, ул.Ленинградская,41",
        "line2": "Ежедневно с 10:00 до 20:00",
        "freePlaces": "3",
        "usersInShop": []
    },
    {
        "id": 299,
        "name": "-Marafett- ул. 6-я Шинная, 10",
        "lat": "54.952263",
        "lon": "73.449653",
        "city": "Омск",
        "line1": "г. Омск, ул. 6-я Шинная, 10",
        "line2": "Ежедневно с 10:00 до 20:00",
        "freePlaces": "3",
        "usersInShop": []
    },
    {
        "id": 300,
        "name": "-Marafett- ул. Октябрьская,18",
        "lat": "55.241190  ",
        "lon": "72.924822",
        "city": "Красный Яр",
        "line1": "рп. Красный Яр, ул. Октябрьская,18",
        "line2": "Ежедневно с 9:00 до 19:00",
        "freePlaces": "3",
        "usersInShop": []
    },
    {
        "id": 301,
        "name": "-Marafett- ул. Красный Путь, 80/1",
        "lat": "55.007266",
        "lon": "73.345044",
        "city": "Омск",
        "line1": "г. Омск, ул. Красный Путь, 80/1",
        "line2": "Ежедневно с 09:00 до 21:00",
        "freePlaces": "3",
        "usersInShop": []
    },
    {
        "id": 302,
        "name": "-Marafett- ул. Ленина,10",
        "lat": "54.960984 ",
        "lon": "72.640127",
        "city": "Марьяновка",
        "line1": "рп. Марьяновка, ул. Ленина,10",
        "line2": "Ежедневно с 9:00 до 19:00",
        "freePlaces": "3",
        "usersInShop": []
    },
    {
        "id": 303,
        "name": "-Marafett- ул. Ленина,47",
        "lat": "55.002883",
        "lon": "74.097491",
        "city": "Кормиловка",
        "line1": "рп. Кормиловка, ул. Ленина,47",
        "line2": "Ежедневно с 9:00 до 19:00",
        "freePlaces": "3",
        "usersInShop": []
    },
    {
        "id": 304,
        "name": "-Marafett- ул. Торговая,10Б помещение 2П",
        "lat": "55.248622  ",
        "lon": "73.025774",
        "city": "Чернолучье",
        "line1": "с. Чернолучье, ул. Торговая,10Б помещение 2П",
        "line2": "Ежедневно с 09:00 до 20:00",
        "freePlaces": "3",
        "usersInShop": []
    },
    {
        "id": 305,
        "name": "-Marafett- ул. Ленина,85",
        "lat": "57.126675  ",
        "lon": "73.813588",
        "city": "Знаменское",
        "line1": "с. Знаменское, ул. Ленина,85",
        "line2": "Ежедневно с 10:00 до 19:00",
        "freePlaces": "3",
        "usersInShop": []
    },
    {
        "id": 306,
        "name": "-Marafett- ул. Октябрьская,2 ",
        "lat": "57.058072  ",
        "lon": "64.639983",
        "city": "Тугулым",
        "line1": "рп. Тугулым, ул. Октябрьская,2 ",
        "line2": "Ежедневно с 9:00 до 19:00",
        "freePlaces": "3",
        "usersInShop": []
    },
    {
        "id": 307,
        "name": "-Marafett- ул. Ленина,28",
        "lat": "56.631832 ",
        "lon": "69.808763",
        "city": "Большое Сорокино",
        "line1": "с. Большое Сорокино, ул. Ленина,28",
        "line2": "Ежедневно с 10:00 до 19:00",
        "freePlaces": "3",
        "usersInShop": []
    },
    {
        "id": 308,
        "name": "-Marafett- ул. Мира, 163",
        "lat": "55.031272",
        "lon": "73.224877",
        "city": "Омск",
        "line1": "г. Омск, ул. Мира, 163",
        "line2": "Ежедневно с 09:00 до 20:00",
        "freePlaces": "3",
        "usersInShop": []
    },
    {
        "id": 309,
        "name": "-Marafett- ул. Суровцева, 102",
        "lat": "54.947289",
        "lon": "73.342619",
        "city": "Омск",
        "line1": "г. Омск, ул. Суровцева, 102",
        "line2": "Ежедневно с 09:00 до 20:30",
        "freePlaces": "3",
        "usersInShop": []
    },
    {
        "id": 310,
        "name": "-Marafett- ул. 60 лет Октября,15",
        "lat": "56.962390 ",
        "lon": "65.786332",
        "city": "Винзили",
        "line1": "рп. Винзили, ул. 60 лет Октября,15",
        "line2": "Ежедневно с 9:00 до 20:00",
        "freePlaces": "3",
        "usersInShop": []
    },
    {
        "id": 311,
        "name": "-Marafett- Ленина, 160 А",
        "lat": "56.864334",
        "lon": "68.646721",
        "city": "Аромашево",
        "line1": "с. Аромашево, Ленина, 160 А",
        "line2": "Ежедневно с 10:00 до 19:00",
        "freePlaces": "3",
        "usersInShop": []
    },
    {
        "id": 312,
        "name": "-Marafett- ул Шоссейная, д 7Б",
        "lat": "56.495459  ",
        "lon": "66.554311",
        "city": "Заводоуковск",
        "line1": "г. Заводоуковск, ул Шоссейная, д 7Б",
        "line2": "Ежедневно с 09:00 до 18:50",
        "freePlaces": "3",
        "usersInShop": []
    },
    {
        "id": 313,
        "name": "-Marafett- Володарского,57",
        "lat": "55.437654  ",
        "lon": "65.341226",
        "city": "Курган",
        "line1": "г. Курган, Володарского,57",
        "line2": "Ежедневно с 09:00 до 20:00",
        "freePlaces": "3",
        "usersInShop": []
    },
    {
        "id": 314,
        "name": "-Marafett- ул. Посадская,45",
        "lat": "56.821173 ",
        "lon": "60.577137",
        "city": "Екатеринбург",
        "line1": "г. Екатеринбург, ул. Посадская,45",
        "line2": "Ежедневно с 10:00 до 20:00",
        "freePlaces": "3",
        "usersInShop": []
    },
    {
        "id": 315,
        "name": "-Marafett- ул. 20 Партсъезда, 37/2",
        "lat": "55.032820",
        "lon": "73.273664",
        "city": "Омск",
        "line1": "г. Омск, ул. 20 Партсъезда, 37/2",
        "line2": "Ежедневно с 09:00 до 20:00",
        "freePlaces": "3",
        "usersInShop": []
    },
    {
        "id": 316,
        "name": "-Marafett- ул. Октябрьская,11",
        "lat": "54.916201   ",
        "lon": "71.274751",
        "city": "Исилькуль",
        "line1": "г. Исилькуль, ул. Октябрьская,11",
        "line2": "Ежедневно с 9:00 до 18:00",
        "freePlaces": "3",
        "usersInShop": []
    },
    {
        "id": 317,
        "name": "-Marafett- ул. Вокзальная,37, ТК Алпи",
        "lat": "55.044954  ",
        "lon": "74.580363",
        "city": "Калачинск",
        "line1": "г. Калачинск, ул. Вокзальная,37, ТК Алпи",
        "line2": "Ежедневно с 9:00 до 19:00",
        "freePlaces": "3",
        "usersInShop": []
    },
    {
        "id": 318,
        "name": "-Marafett- ул. Артиллерийская,27,ТК Плаза",
        "lat": "56.111258  ",
        "lon": "69.483052",
        "city": "Ишим",
        "line1": "г. Ишим, ул. Артиллерийская,27,ТК Плаза",
        "line2": "Ежедневно с 10:00 до 20:00",
        "freePlaces": "3",
        "usersInShop": []
    },
    {
        "id": 319,
        "name": "-Marafett- ул. 2-я Железнодорожная, д.1а",
        "lat": "54.943194",
        "lon": "73.436780",
        "city": "Омск",
        "line1": "г. Омск, ул. 2-я Железнодорожная, д.1а",
        "line2": "Ежедневно с 10:00 до 20:00",
        "freePlaces": "3",
        "usersInShop": []
    },
    {
        "id": 320,
        "name": "-Marafett- Советов,39",
        "lat": "56.095238 ",
        "lon": "74.642077",
        "city": "Большеречье",
        "line1": "рп. Большеречье, Советов,39",
        "line2": "Ежедневно с 9:00 до 19:00",
        "freePlaces": "3",
        "usersInShop": []
    },
    {
        "id": 321,
        "name": "-Marafett- ул. Кирова,34а",
        "lat": "55.369935  ",
        "lon": "74.361839",
        "city": "Горьковское",
        "line1": "рп. Горьковское, ул. Кирова,34а",
        "line2": "Ежедневно с 9:00 до 19:00",
        "freePlaces": "3",
        "usersInShop": []
    },
    {
        "id": 322,
        "name": "-Marafett- ул. Ленина,38",
        "lat": "55.870612  ",
        "lon": "72.191913",
        "city": "Тюкалинск",
        "line1": "г. Тюкалинск, ул. Ленина,38",
        "line2": "Ежедневно с 9:00 до 19:00",
        "freePlaces": "3",
        "usersInShop": []
    },
    {
        "id": 323,
        "name": "-Marafett- ул. Иртышская,12",
        "lat": "55.174424 ",
        "lon": "73.213010",
        "city": "Береговой",
        "line1": "мкр. Береговой, ул. Иртышская,12",
        "line2": "Ежедневно с 9:00 до 20:00",
        "freePlaces": "3",
        "usersInShop": []
    },
    {
        "id": 324,
        "name": "-Marafett- ул. Почтовая,9, ТЦ Меркурий",
        "lat": "54.154344  ",
        "lon": "74.799120",
        "city": "Черлак",
        "line1": "рп. Черлак, ул. Почтовая,9, ТЦ Меркурий",
        "line2": "Ежедневно с 9:00 до 19:00",
        "freePlaces": "3",
        "usersInShop": []
    },
    {
        "id": 325,
        "name": "-Marafett- ул. Ленина, 50",
        "lat": "54.583467",
        "lon": "73.636161",
        "city": "Таврическое",
        "line1": "рп. Таврическое, ул. Ленина, 50",
        "line2": "Ежедневно с 9:00 до 19:00",
        "freePlaces": "3",
        "usersInShop": []
    },
    {
        "id": 326,
        "name": "-Marafett- ул.Ильича,2/1",
        "lat": "58.625155  ",
        "lon": "59.853436",
        "city": "Нижняя Тура",
        "line1": "г. Нижняя Тура, ул.Ильича,2/1",
        "line2": "Ежедневно с 10:00 до 20:00",
        "freePlaces": "3",
        "usersInShop": []
    },
    {
        "id": 327,
        "name": "-Marafett- ул. Б.Цемента, 6",
        "lat": "54.949146",
        "lon": "73.426324",
        "city": "Омск",
        "line1": "г. Омск, ул. Б.Цемента, 6",
        "line2": "Ежедневно с 10:00 до 20:00",
        "freePlaces": "3",
        "usersInShop": []
    },
    {
        "id": 328,
        "name": "-Marafett- ул. Советская,5, ТК Радуга",
        "lat": "55.021777 ",
        "lon": "73.134030",
        "city": "Дружино",
        "line1": "с. Дружино, ул. Советская,5, ТК Радуга",
        "line2": "Ежедневно с 10:00 до 20:00",
        "freePlaces": "3",
        "usersInShop": []
    },
    {
        "id": 329,
        "name": "-Marafett- ул. Ленина,18б",
        "lat": "54.213119   ",
        "lon": "72.966432",
        "city": "Одесское",
        "line1": "с. Одесское, ул. Ленина,18б",
        "line2": "Ежедневно с 9:00 до 20:00",
        "freePlaces": "3",
        "usersInShop": []
    },
    {
        "id": 330,
        "name": "-Marafett- ул. Комсомольская,15",
        "lat": "54.632760 ",
        "lon": "72.398912",
        "city": "Шербакуль",
        "line1": "рп. Шербакуль, ул. Комсомольская,15",
        "line2": "Ежедневно с 9:00 до 20:00",
        "freePlaces": "3",
        "usersInShop": []
    },
    {
        "id": 331,
        "name": "-Marafett- ул. Ленина,127",
        "lat": "56.370553  ",
        "lon": "75.235756",
        "city": "Муромцево",
        "line1": "рп. Муромцево, ул. Ленина,127",
        "line2": "Ежедневно с 9:00 до 19:00",
        "freePlaces": "3",
        "usersInShop": []
    },
    {
        "id": 332,
        "name": "-Marafett- ул. Ленина,81",
        "lat": "55.218692 ",
        "lon": "75.971611",
        "city": "Татарск",
        "line1": "г. Татарск, ул. Ленина,81",
        "line2": "Ежедневно с 9:00 до 19:00",
        "freePlaces": "3",
        "usersInShop": []
    },
    {
        "id": 333,
        "name": "-Marafett- ул. Ядринцева, 24",
        "lat": "55.032867",
        "lon": "73.455133",
        "city": "Омск",
        "line1": "г. Омск, ул. Ядринцева, 24",
        "line2": "Ежедневно с 09:00 до 20:00",
        "freePlaces": "3",
        "usersInShop": []
    },
    {
        "id": 334,
        "name": "-Marafett- ул. Октябрьская, 12А",
        "lat": "55.609995",
        "lon": "73.496626",
        "city": "Саргатское",
        "line1": "рп. Саргатское, ул. Октябрьская, 12А",
        "line2": "Ежедневно с 9:00 до 19:00",
        "freePlaces": "3",
        "usersInShop": []
    },
    {
        "id": 335,
        "name": "-Marafett- ул. Крупской,3",
        "lat": "55.804557  ",
        "lon": "68.312898",
        "city": "Бердюжье",
        "line1": "с. Бердюжье, ул. Крупской,3",
        "line2": "Ежедневно с 09:00 до 19:00",
        "freePlaces": "3",
        "usersInShop": []
    },
    {
        "id": 336,
        "name": "-Marafett- ул. Советская,14",
        "lat": "56.392781  ",
        "lon": "68.374693",
        "city": "Голышманово",
        "line1": "рп. Голышманово, ул. Советская,14",
        "line2": "Ежедневно с 09:00 до 20:00",
        "freePlaces": "3",
        "usersInShop": []
    },
    {
        "id": 337,
        "name": "-Marafett- ул.Ленина, 55Б",
        "lat": "56.282855 ",
        "lon": "70.454553",
        "city": "Абатское",
        "line1": "с. Абатское, ул.Ленина, 55Б",
        "line2": "Ежедневно с 9:00 до 20:00",
        "freePlaces": "3",
        "usersInShop": []
    },
    {
        "id": 339,
        "name": "-Marafett- ул. Первомайская,1",
        "lat": "57.674574  ",
        "lon": "66.163175",
        "city": "Нижняя Тавда",
        "line1": "с. Нижняя Тавда, ул. Первомайская,1",
        "line2": "Ежедневно с 9:00 до 20:00",
        "freePlaces": "3",
        "usersInShop": []
    },
    {
        "id": 340,
        "name": "-Marafett- ул. Володарского,36",
        "lat": "56.312984  ",
        "lon": "66.265395",
        "city": "Упорово",
        "line1": "с. Упорово, ул. Володарского,36",
        "line2": "Ежедневно с 9:00 до 20:00",
        "freePlaces": "3",
        "usersInShop": []
    },
    {
        "id": 341,
        "name": "-Marafett- ул. Торговая площадь, 4/2",
        "lat": "56.815557  ",
        "lon": "70.604868",
        "city": "Викулово",
        "line1": "с. Викулово, ул. Торговая площадь, 4/2",
        "line2": "Ежедневно с 9:00 до 19:00",
        "freePlaces": "3",
        "usersInShop": []
    },
    {
        "id": 342,
        "name": "-Marafett- ул. Советская,116",
        "lat": "55.307506  ",
        "lon": "76.760107",
        "city": "Чаны",
        "line1": "рп. Чаны, ул. Советская,116",
        "line2": "Ежедневно с 9:00 до 19:00",
        "freePlaces": "3",
        "usersInShop": []
    },
    {
        "id": 343,
        "name": "-Marafett- ул. Победы,22",
        "lat": "54.367174  ",
        "lon": "71.760650",
        "city": "Полтавка",
        "line1": "рп. Полтавка, ул. Победы,22",
        "line2": "Ежедневно с 9:00 до 20:00",
        "freePlaces": "3",
        "usersInShop": []
    },
    {
        "id": 344,
        "name": "-Marafett- Пр-т Комарова, д.15, к.4, пом.16 П",
        "lat": "54.985194",
        "lon": "73.302806",
        "city": "Омск",
        "line1": "г. Омск, Пр-т Комарова, д.15, к.4, пом.16 П",
        "line2": "Ежедневно с 10:00 до 20:00",
        "freePlaces": "3",
        "usersInShop": []
    },
    {
        "id": 345,
        "name": "-Marafett- ул. Ленина, 96/2",
        "lat": "57.399265  ",
        "lon": "67.076070",
        "city": "Ярково",
        "line1": "с. Ярково, ул. Ленина, 96/2",
        "line2": "Ежедневно с 10:00 до 19:00",
        "freePlaces": "3",
        "usersInShop": []
    },
    {
        "id": 346,
        "name": "-Marafett- ул. Коммунистическая,82",
        "lat": "54.840044  ",
        "lon": "75.073861",
        "city": "Оконешниково",
        "line1": "рп. Оконешниково, ул. Коммунистическая,82",
        "line2": "Ежедневно с 9:00 до 19:00",
        "freePlaces": "3",
        "usersInShop": []
    },
    {
        "id": 347,
        "name": "-Marafett- ул. Аптекарская, 5Б",
        "lat": "56.011293  ",
        "lon": "71.517736",
        "city": "Крутинка",
        "line1": "рп. Крутинка, ул. Аптекарская, 5Б",
        "line2": "Ежедневно с 9:30 до 19:00",
        "freePlaces": "3",
        "usersInShop": []
    },
    {
        "id": 348,
        "name": "-Marafett- Кооперативная,26",
        "lat": "55.090016 ",
        "lon": "80.973376",
        "city": "Чулым",
        "line1": "г. Чулым, Кооперативная,26",
        "line2": "Ежедневно с 8:00 до 18:00",
        "freePlaces": "3",
        "usersInShop": []
    },
    {
        "id": 349,
        "name": "-Marafett- ул. Банковская,8",
        "lat": "55.020115 ",
        "lon": "82.210689",
        "city": "Коченево",
        "line1": "рп. Коченево, ул. Банковская,8",
        "line2": "Ежедневно с 9:00 до 18:00",
        "freePlaces": "3",
        "usersInShop": []
    },
    {
        "id": 350,
        "name": "-Marafett- ул. Садовая, 27в",
        "lat": "55.086208 ",
        "lon": "82.645707",
        "city": "Криводановка",
        "line1": "с. Криводановка, ул. Садовая, 27в",
        "line2": "Ежедневно с 9:00 до 19:00",
        "freePlaces": "3",
        "usersInShop": []
    },
    {
        "id": 351,
        "name": "-Marafett- Комарова пр-кт, 31 Б",
        "lat": "54.980074",
        "lon": "73.315382",
        "city": "Омск",
        "line1": "г. Омск, Комарова пр-кт, 31 Б",
        "line2": "Ежедневно с 09:00 до 21:00",
        "freePlaces": "3",
        "usersInShop": []
    },
    {
        "id": 352,
        "name": "-Marafett- ул. Интернациональная,82А",
        "lat": "62.163459 ",
        "lon": "65.461825",
        "city": "Нягань",
        "line1": "г. Нягань, ул. Интернациональная,82А",
        "line2": "Ежедневно с 10:00 до 20:00",
        "freePlaces": "3",
        "usersInShop": []
    },
    {
        "id": 353,
        "name": "-Marafett- ул. Ленина, 89",
        "lat": "56.895555 ",
        "lon": "74.378107",
        "city": "Тара",
        "line1": "г. Тара, ул. Ленина, 89",
        "line2": "Ежедневно с 10:00 до 19:00",
        "freePlaces": "3",
        "usersInShop": []
    },
    {
        "id": 354,
        "name": "-Marafett- ул. Мира, 100",
        "lat": "55.029255",
        "lon": "73.248440",
        "city": "Омск",
        "line1": "г. Омск, ул. Мира, 100",
        "line2": "Ежедневно с 10:00 до 20:00",
        "freePlaces": "3",
        "usersInShop": []
    },
    {
        "id": 355,
        "name": "-Marafett- ул. Комсомольская,73, Держава",
        "lat": "54.938782   ",
        "lon": "71.930827",
        "city": "Москаленки",
        "line1": "рп. Москаленки, ул. Комсомольская,73, Держава",
        "line2": "Ежедневно с 9:00 до 19:00",
        "freePlaces": "3",
        "usersInShop": []
    },
    {
        "id": 356,
        "name": "-Marafett- ул. Кирова, 57 Б",
        "lat": "54.998561",
        "lon": "74.094500",
        "city": "Кормиловка",
        "line1": "рп. Кормиловка, ул. Кирова, 57 Б",
        "line2": "Ежедневно с 9:00 до 19:00",
        "freePlaces": "3",
        "usersInShop": []
    },
    {
        "id": 357,
        "name": "-Marafett- ул. Силина,1А",
        "lat": "55.368804  ",
        "lon": "73.222523",
        "city": "Крутая Горка",
        "line1": "мкр. Крутая Горка, ул. Силина,1А",
        "line2": "Ежедневно с 9:00 до 20:00",
        "freePlaces": "3",
        "usersInShop": []
    },
    {
        "id": 358,
        "name": "-Marafett- ул. Ленина, 41",
        "lat": "53.777857  ",
        "lon": "73.874287",
        "city": "Русская Поляна",
        "line1": "рп. Русская Поляна, ул. Ленина, 41",
        "line2": "Ежедневно с 09:00 до 20:00",
        "freePlaces": "3",
        "usersInShop": []
    },
    {
        "id": 359,
        "name": "-Marafett- ул. Кирова,19",
        "lat": "55.568980 ",
        "lon": "71.342987",
        "city": "Называевск",
        "line1": "г. Называевск, ул. Кирова,19",
        "line2": "Ежедневно с 10:00 до 19:00",
        "freePlaces": "3",
        "usersInShop": []
    },
    {
        "id": 360,
        "name": "-Marafett- ул. Ленина,4строение1",
        "lat": "57.177070  ",
        "lon": "65.928239",
        "city": "Каскара",
        "line1": "с. Каскара, ул. Ленина,4строение1",
        "line2": "Ежедневно с 10:00 до 19:00",
        "freePlaces": "3",
        "usersInShop": []
    },
    {
        "id": 361,
        "name": "-Marafett- ул. Молодежная,4",
        "lat": "57.091297",
        "lon": "61.674420",
        "city": "Рефтинский",
        "line1": "рп. Рефтинский, ул. Молодежная,4",
        "line2": "Ежедневно с 10:00 до 19:00",
        "freePlaces": "3",
        "usersInShop": []
    },
    {
        "id": 362,
        "name": "-Marafett- Ленина, 86",
        "lat": "55.323951 ",
        "lon": "73.097118",
        "city": "Красноярка",
        "line1": "с. Красноярка, Ленина, 86",
        "line2": "Ежедневно с 09:00 до 20:00",
        "freePlaces": "3",
        "usersInShop": []
    },
    {
        "id": 363,
        "name": "-Marafett- ул. Юбилейная,2",
        "lat": "56.878133  ",
        "lon": "65.857128",
        "city": "Богандинский",
        "line1": "рп. Богандинский, ул. Юбилейная,2",
        "line2": "Ежедневно с 09:00 до 20:00",
        "freePlaces": "3",
        "usersInShop": []
    },
    {
        "id": 365,
        "name": "-Marafett- ул. Мельничная, 126 А",
        "lat": "54.908702",
        "lon": "73.310890",
        "city": "Омск",
        "line1": "г. Омск, ул. Мельничная, 126 А",
        "line2": "Ежедневно с 10:00 до 20:00",
        "freePlaces": "3",
        "usersInShop": []
    },
    {
        "id": 366,
        "name": "-Marafett- ул. Кирова,21",
        "lat": "56.475215  ",
        "lon": "65.325173",
        "city": "Исетское",
        "line1": "с. Исетское, ул. Кирова,21",
        "line2": "Ежедневно с 09:00 до 19:00",
        "freePlaces": "3",
        "usersInShop": []
    },
    {
        "id": 367,
        "name": "-Marafett- Советская,42",
        "lat": "55.305313",
        "lon": "82.741814",
        "city": "Колывань",
        "line1": "рп. Колывань, Советская,42",
        "line2": "Ежедневно с 09:00 до 20:00",
        "freePlaces": "3",
        "usersInShop": []
    },
    {
        "id": 368,
        "name": "-Marafett- ул. Богдана Хмельницкого, 42/1",
        "lat": "54.990406",
        "lon": "73.407953",
        "city": "Омск",
        "line1": "г. Омск, ул. Богдана Хмельницкого, 42/1",
        "line2": "Ежедневно с 10:00 до 20:00",
        "freePlaces": "3",
        "usersInShop": []
    },
    {
        "id": 369,
        "name": "-Marafett- ул. Советская, 20",
        "lat": "57.515659 ",
        "lon": "72.399945",
        "city": "Тевриз",
        "line1": "рп. Тевриз, ул. Советская, 20",
        "line2": "Ежедневно с 09:00 до 19:00",
        "freePlaces": "3",
        "usersInShop": []
    },
    {
        "id": 370,
        "name": "-Marafett- ул. Спартака, 49",
        "lat": "56.086017 ",
        "lon": "63.614008",
        "city": "Шадринск",
        "line1": "г. Шадринск, ул. Спартака, 49",
        "line2": "Ежедневно с 09:00 до 20:00",
        "freePlaces": "3",
        "usersInShop": []
    },
    {
        "id": 371,
        "name": "-Marafett- Советская, 61/1",
        "lat": "54.706006 ",
        "lon": "73.034901",
        "city": "Азово",
        "line1": "с. Азово, Советская, 61/1",
        "line2": "Ежедневно с 09:00 до 20:00",
        "freePlaces": "3",
        "usersInShop": []
    },
    {
        "id": 372,
        "name": "-Marafett- ул. Октябрьская, 25",
        "lat": "57.933278",
        "lon": " 69.013763",
        "city": "Вагай",
        "line1": "с. Вагай, ул. Октябрьская, 25",
        "line2": "Ежедневно с 09:00 до 19:00",
        "freePlaces": "3",
        "usersInShop": []
    },
    {
        "id": 373,
        "name": "-Marafett- Ленина, 15",
        "lat": "56.652022 ",
        "lon": "66.317030",
        "city": "Ялуторовск",
        "line1": "г. Ялуторовск, Ленина, 15",
        "line2": "Ежедневно с 09:00 до 20:00",
        "freePlaces": "3",
        "usersInShop": []
    },
    {
        "id": 374,
        "name": "-Marafett- ул. Дианова, 13",
        "lat": "54.993241",
        "lon": "73.255222",
        "city": "Омск",
        "line1": "г. Омск, ул. Дианова, 13",
        "line2": "Ежедневно с 09:00 до 20:00",
        "freePlaces": "3",
        "usersInShop": []
    },
    {
        "id": 375,
        "name": "-Marafett- ул. 4-я Челюскинцев, 66, корпус 1",
        "lat": "55.025477",
        "lon": "73.416308",
        "city": "Омск",
        "line1": "г. Омск, ул. 4-я Челюскинцев, 66, корпус 1",
        "line2": "Ежедневно с 09:00 до 20:00",
        "freePlaces": "3",
        "usersInShop": []
    },
    {
        "id": 376,
        "name": "-Marafett- Советская,203",
        "lat": "55.193067",
        "lon": "80.277784",
        "city": "Каргат",
        "line1": "г. Каргат, Советская,203",
        "line2": "Ежедневно с 09:00 до 19:00",
        "freePlaces": "3",
        "usersInShop": []
    },
    {
        "id": 377,
        "name": "-Marafett- ул. Академика Павлова, 22",
        "lat": "54.941099 ",
        "lon": "73.389825",
        "city": "Омск",
        "line1": "г. Омск, ул. Академика Павлова, 22",
        "line2": "Ежедневно с 09:00 до 20:00",
        "freePlaces": "3",
        "usersInShop": []
    },
    {
        "id": 378,
        "name": "-Marafett- ул. Герцена, 232/1",
        "lat": "54.996619 ",
        "lon": "73.274024",
        "city": "Омск",
        "line1": "г. Омск, ул. Герцена, 232/1",
        "line2": "Ежедневно с 09:30 до 19:30",
        "freePlaces": "3",
        "usersInShop": []
    },
    {
        "id": 379,
        "name": "-Marafett- Кирова,24,пом.1П",
        "lat": "56.464331",
        "lon": "73.613488",
        "city": "Колосовка",
        "line1": "с. Колосовка, Кирова,24,пом.1П",
        "line2": "Ежедневно с 8:30 до 18:00",
        "freePlaces": "3",
        "usersInShop": []
    },
    {
        "id": 380,
        "name": "-Marafett- ул. Багратиона, 4 (Marafett)",
        "lat": "55.020864",
        "lon": "73.410334",
        "city": "Омск",
        "line1": "г. Омск, ул. Багратиона, 4 (Marafett)",
        "line2": "Ежедневно с 09:00 до 20:00",
        "freePlaces": "3",
        "usersInShop": []
    },
    {
        "id": 381,
        "name": "-Marafett- Карла Маркса,2А",
        "lat": "55.940477",
        "lon": "67.676989",
        "city": "Армизонское",
        "line1": "с. Армизонское, Карла Маркса,2А",
        "line2": "Ежедневно с 10:00 до 17:00",
        "freePlaces": "3",
        "usersInShop": []
    },
    {
        "id": 382,
        "name": "-Marafett- Ростовка, 21",
        "lat": "55.018154",
        "lon": "73.578786",
        "city": "Ростовка",
        "line1": "п. Ростовка, Ростовка, 21",
        "line2": "Ежедневно с 09:00 до 20:00",
        "freePlaces": "3",
        "usersInShop": []
    },
    {
        "id": 383,
        "name": "-Marafett- Колхозная,5",
        "lat": "54.207856",
        "lon": "73.562648",
        "city": "Павлоградка",
        "line1": "рп. Павлоградка, Колхозная,5",
        "line2": "Ежедневно с 09:00 до 20:00",
        "freePlaces": "3",
        "usersInShop": []
    },
    {
        "id": 384,
        "name": "-Marafett- Лихачева,17,пом1П",
        "lat": "56.876112",
        "lon": "74.390782",
        "city": "Тара",
        "line1": "г. Тара, Лихачева,17,пом1П",
        "line2": "Ежедневно с 09:00 до 17:00",
        "freePlaces": "3",
        "usersInShop": []
    },
    {
        "id": 385,
        "name": "-Marafett- ул. Кирова, 20",
        "lat": "54.942485 ",
        "lon": "73.423422",
        "city": "Омск",
        "line1": "г. Омск, ул. Кирова, 20",
        "line2": "Ежедневно с 09:00 до 20:00",
        "freePlaces": "3",
        "usersInShop": []
    },
    {
        "id": 386,
        "name": "-Marafett- Октябрьская,13",
        "lat": "55.645476",
        "lon": "69.236671",
        "city": "Казанское",
        "line1": "с. Казанское, Октябрьская,13",
        "line2": "Ежедневно с 09:00 до 19:00",
        "freePlaces": "3",
        "usersInShop": []
    },
    {
        "id": 387,
        "name": "-Marafett- Кооперативная,8/Трудовая28",
        "lat": "55.428500",
        "lon": "74.937470",
        "city": "Нижняя Омка",
        "line1": "с. Нижняя Омка, Кооперативная,8/Трудовая28",
        "line2": "Ежедневно с 09:00 до 19:00",
        "freePlaces": "3",
        "usersInShop": []
    },
    {
        "id": 388,
        "name": "-Marafett- Ворошилова,26А",
        "lat": "56.524174",
        "lon": "66.486461",
        "city": "Заводоуковск",
        "line1": "г. Заводоуковск, Ворошилова,26А",
        "line2": "Ежедневно с 09:00 до 19:30",
        "freePlaces": "3",
        "usersInShop": []
    },
    {
        "id": 389,
        "name": "-Marafett- Дзержинского,30",
        "lat": "54.708056",
        "lon": "76.580983",
        "city": "Чистоозерное",
        "line1": "рп. Чистоозерное, Дзержинского,30",
        "line2": "Ежедневно с 09:00 до 19:00",
        "freePlaces": "3",
        "usersInShop": []
    },
    {
        "id": 390,
        "name": "-Marafett- Островского,36",
        "lat": "57.043385",
        "lon": "65.723288",
        "city": "Боровский",
        "line1": "рп. Боровский, Островского,36",
        "line2": "Ежедневно с 10:00 до 20:00",
        "freePlaces": "3",
        "usersInShop": []
    },
    {
        "id": 391,
        "name": "-Marafett-  ул.Октябрьской Революции,38",
        "lat": "57.908700",
        "lon": "59.988309",
        "city": "Нижний Тагил",
        "line1": "г. Нижний Тагил,  ул.Октябрьской Революции,38",
        "line2": "Ежедневно с 10:00 до 20:00",
        "freePlaces": "3",
        "usersInShop": []
    },
    {
        "id": 392,
        "name": "Интернет-магазин",
        "lat": "0",
        "lon": "0",
        "city": "Омск",
        "line1": "Интернет-магазин",
        "line2": "Ежедневно с 00:00 до 23:59",
        "freePlaces": "3",
        "usersInShop": []
    },
    {
        "id": 393,
        "name": "-Marafett- г. Нижняя Тура, Ленина 121 А",
        "lat": "58.632422 ",
        "lon": "59.810236",
        "city": "Нижняя Тура",
        "line1": "г. Нижняя Тура, г. Нижняя Тура, Ленина 121 А",
        "line2": "Ежедневно с 10:00 до 20:00",
        "freePlaces": "3",
        "usersInShop": []
    },
    {
        "id": 397,
        "name": "-Marafett- ул. Куйбышева, 89",
        "lat": "53.817430",
        "lon": "83.561216",
        "city": "Тальменка",
        "line1": "рп. Тальменка, ул. Куйбышева, 89",
        "line2": "Ежедневно с 09:00 до 20:00",
        "freePlaces": "3",
        "usersInShop": []
    },
    {
        "id": 399,
        "name": "-Marafett- ул. Вокзальная, 27",
        "lat": "54.940712",
        "lon": "73.396527",
        "city": "Омск",
        "line1": "г. Омск, ул. Вокзальная, 27",
        "line2": "Ежедневно с 9:00 до 20:00",
        "freePlaces": "3",
        "usersInShop": []
    },
    {
        "id": 400,
        "name": "-Marafett- ул. Волховстроя,1 ",
        "lat": "55.001948",
        "lon": "73.356076",
        "city": "Омск",
        "line1": "г. Омск, ул. Волховстроя,1 ",
        "line2": "Ежедневно с 9:00 до 21:00",
        "freePlaces": "3",
        "usersInShop": []
    },
    {
        "id": 402,
        "name": "-Парфюм-лидер- ул. Советская, 95 В",
        "lat": "63.204859",
        "lon": "75.467224",
        "city": "Ноябрьск",
        "line1": "г. Ноябрьск, ул. Советская, 95 В",
        "line2": "Ежедневно с 10:00 до 21:00",
        "freePlaces": "3",
        "usersInShop": []
    },