[
    {
        "id": 79,
        "name": "-Парфюм-лидер- «ТК Меркар» ",
        "lat": "54.960126",
        "lon": "73.413074",
        "city": "Омск",
        "line1": "г. Омск, ул. Богдана Хмельницкого, 214  ",
        "line2": "Ежедневно с 10:00 до 21:00",
        "code": "001",
        "freePlaces": 4,
        "usersInShop": []
    },
    {
        "id": 82,
        "name": "-Парфюм-лидер- пр. Карла Маркса, 10",
        "lat": "54.973731",
        "lon": "73.381780",
        "city": "Омск",
        "line1": "г. Омск, пр. Карла Маркса, 10",
        "line2": "Ежедневно с 10:00 до 21:00",
        "code": "004",
        "freePlaces": 4,
        "usersInShop": []
    },
    {
        "id": 2,
        "name": "-Парфюм-лидер- Универсам «Заря»",
        "lat": "55.021090",
        "lon": "73.410305",
        "city": "Омск",
        "line1": "г. Омск, ул. Багратиона, 4",
        "line2": "Ежедневно с 10:00 до 21:00",
        "code": "008",
        "freePlaces": 4,
        "usersInShop": []
    },
    {
        "id": 85,
        "name": "-Парфюм-лидер- ТД «На Конева»",
        "lat": "54.978876",
        "lon": "73.310500",
        "city": "Омск",
        "line1": "г. Омск, ул. Конева, 28а",
        "line2": "Ежедневно с 10:00 до 20:00",
        "code": "012",
        "freePlaces": 4,
        "usersInShop": []
    },
    {
        "id": 4,
        "name": "-Парфюм-лидер- ТЦ «Арбатъ»",
        "lat": "54.985579",
        "lon": "73.404331",
        "city": "Омск",
        "line1": "г. Омск, ул. 10 лет Октября, 113",
        "line2": "Ежедневно с 10:00 до 21:00",
        "code": "017",
        "freePlaces": 4,
        "usersInShop": []
    },
    {
        "id": 88,
        "name": "-Парфюм-лидер- ул. 10-я Чередовая, 26",
        "lat": "54.921626",
        "lon": "73.417070",
        "city": "Омск",
        "line1": "г. Омск, ул. 10-я Чередовая, 26",
        "line2": "Ежедневно с 10:00 до 21:00",
        "code": "019",
        "freePlaces": 4,
        "usersInShop": []
    },
    {
        "id": 89,
        "name": "-Парфюм-лидер- ул. Маяковского, 48/2",
        "lat": "54.971111",
        "lon": "73.396863",
        "city": "Омск",
        "line1": "г. Омск, ул. Маяковского, 48/2",
        "line2": "Ежедневно с 10:00 до 20:00",
        "code": "020",
        "freePlaces": 4,
        "usersInShop": []
    },
    {
        "id": 5,
        "name": "-Парфюм-лидер- пр. Мира, 60",
        "lat": "55.029498",
        "lon": "73.276849",
        "city": "Омск",
        "line1": "г. Омск, пр. Мира, 60",
        "line2": "Ежедневно с 10:00 до 21:00",
        "code": "021",
        "freePlaces": 4,
        "usersInShop": []
    },
    {
        "id": 91,
        "name": "-Парфюм-лидер- ТОК «Русшина»",
        "lat": "54.986210",
        "lon": "73.425124",
        "city": "Омск",
        "line1": "г. Омск, ул. 10 лет Октября, 166",
        "line2": "Ежедневно с 10:00 до 20:00",
        "code": "025",
        "freePlaces": 4,
        "usersInShop": []
    },
    {
        "id": 92,
        "name": "-Парфюм-лидер- ТК «Тополинный»",
        "lat": "54.989573",
        "lon": "73.307459",
        "city": "Омск",
        "line1": "г. Омск, ул. Бульвар Архитекторов, 5/1",
        "line2": "Ежедневно с 10:00 до 20:00",
        "code": "026",
        "freePlaces": 4,
        "usersInShop": []
    },
    {
        "id": 93,
        "name": "-Парфюм-лидер- ул. 21 Амурская, 12/1",
        "lat": "55.027392",
        "lon": "73.413974",
        "city": "Омск",
        "line1": "г. Омск, ул. 21 Амурская, 12/1",
        "line2": "Ежедневно с 10:00 до 21:00",
        "code": "027",
        "freePlaces": 4,
        "usersInShop": []
    },
    {
        "id": 94,
        "name": "-Парфюм-лидер- ул. Герцена, 38",
        "lat": "54.997022",
        "lon": "73.373168",
        "city": "Омск",
        "line1": "г. Омск, ул. Герцена, 38",
        "line2": "Ежедневно с 10:00 до 20:00",
        "code": "028",
        "freePlaces": 4,
        "usersInShop": []
    },
    {
        "id": 95,
        "name": "-Парфюм-лидер- ул. Лукашевича, 15д",
        "lat": "54.994784",
        "lon": "73.279463",
        "city": "Омск",
        "line1": "г. Омск, ул. Лукашевича, 15д",
        "line2": "Ежедневно с 10:00 до 20:00",
        "code": "029",
        "freePlaces": 4,
        "usersInShop": []
    },
    {
        "id": 98,
        "name": "-Парфюм-лидер- ТК «Лето»",
        "lat": "54.993014 ",
        "lon": "73.265110",
        "city": "Омск",
        "line1": "г. Омск, ул. Дианова, 3/1",
        "line2": "Ежедневно с 10:00 до 20:00",
        "code": "033",
        "freePlaces": 4,
        "usersInShop": []
    },
    {
        "id": 99,
        "name": "-Парфюм-лидер- ТК «Алладин»",
        "lat": "55.029473",
        "lon": "73.249190",
        "city": "Омск",
        "line1": "г. Омск, пр. Мира, 100",
        "line2": "Ежедневно с 10:00 до 20:00",
        "code": "034",
        "freePlaces": 4,
        "usersInShop": []
    },
    {
        "id": 103,
        "name": "-Парфюм-лидер- ул. 24-я Северная, 212",
        "lat": "55.023043",
        "lon": "73.400587",
        "city": "Омск",
        "line1": "г. Омск, ул. 24-я Северная, 212",
        "line2": "Ежедневно с 10:00 до 20:00",
        "code": "038",
        "freePlaces": 4,
        "usersInShop": []
    },
    {
        "id": 104,
        "name": "-Парфюм-лидер- Центр торговли «Апельсин»",
        "lat": "54.941227 ",
        "lon": "73.377316",
        "city": "Омск",
        "line1": "г. Омск, ул. Рождественского, 6/1",
        "line2": "Ежедневно с 10:00 до 20:00",
        "code": "039",
        "freePlaces": 4,
        "usersInShop": []
    },
    {
        "id": 6,
        "name": "-Парфюм-лидер- Торговая галерея «На Рождественского»",
        "lat": "54.940986",
        "lon": "73.380402",
        "city": "Омск",
        "line1": "г. Омск, ул. Рождественского, 6 к.2",
        "line2": "Ежедневно с 10:00 до 19:00",
        "code": "041",
        "freePlaces": 4,
        "usersInShop": []
    },
    {
        "id": 106,
        "name": "-Парфюм-лидер- ул. Бархатовой, 2а",
        "lat": "55.048792 ",
        "lon": "73.325911",
        "city": "Омск",
        "line1": "г. Омск, ул. Бархатовой, 2а",
        "line2": "Ежедневно с 10:00 до 20:00",
        "code": "042",
        "freePlaces": 4,
        "usersInShop": []
    },
    {
        "id": 107,
        "name": "-Парфюм-лидер- ул. Кирова, 47",
        "lat": "54.946648 ",
        "lon": "73.420719",
        "city": "Омск",
        "line1": "г. Омск, ул. Кирова, 47",
        "line2": "Ежедневно с 10:00 до 20:00",
        "code": "044",
        "freePlaces": 4,
        "usersInShop": []
    },
    {
        "id": 108,
        "name": "-Парфюм-лидер- ТК «Любимый»",
        "lat": "54.996098",
        "lon": "73.235026",
        "city": "Омск",
        "line1": "г. Омск, ул. Дианова, 24/2",
        "line2": "Ежедневно с 10:00 до 20:00",
        "code": "045",
        "freePlaces": 4,
        "usersInShop": []
    },
    {
        "id": 109,
        "name": "-Парфюм-лидер- ТК «Алладин»",
        "lat": "54.951078 ",
        "lon": "73.328021",
        "city": "Омск",
        "line1": "г. Омск, ул. 12 Декабря, 115",
        "line2": "Ежедневно с 10:00 до 20:00",
        "code": "046",
        "freePlaces": 4,
        "usersInShop": []
    },
    {
        "id": 110,
        "name": "-Парфюм-лидер- ул. Серова,16а",
        "lat": "54.947486 ",
        "lon": "73.384022",
        "city": "Омск",
        "line1": "г. Омск, ул. Серова,16а",
        "line2": "Ежедневно с 10:00 до 20:00",
        "code": "049",
        "freePlaces": 4,
        "usersInShop": []
    },
    {
        "id": 113,
        "name": "-Парфюм-лидер- пр. Карла Маркса, 29",
        "lat": "54.973189 ",
        "lon": "73.382560",
        "city": "Омск",
        "line1": "г. Омск, пр. Карла Маркса, 29",
        "line2": "Ежедневно с 10:00 до 21:00",
        "code": "052",
        "freePlaces": 4,
        "usersInShop": []
    },
    {
        "id": 9,
        "name": "-Парфюм-лидер- ТК «Октябрьский»",
        "lat": "54.969009.",
        "lon": "73.446752",
        "city": "Омск",
        "line1": "г. Омск, пр. Космический, 17б",
        "line2": "Ежедневно с 10:00 до 21:00",
        "code": "054",
        "freePlaces": 4,
        "usersInShop": []
    },
    {
        "id": 14,
        "name": "-Парфюм-лидер- ТЦ Festival City",
        "lat": "54.980954",
        "lon": "73.321220",
        "city": "Омск",
        "line1": "г. Омск, ул. 70 лет Октября, 19",
        "line2": "Ежедневно с 10:00 до 21:00",
        "code": "059",
        "freePlaces": 4,
        "usersInShop": []
    },
    {
        "id": 19,
        "name": "-Парфюм-лидер- ул. Гашека, 13",
        "lat": "54.908263",
        "lon": "73.445775",
        "city": "Омск",
        "line1": "г. Омск, ул. Гашека, 13",
        "line2": "Ежедневно с 10:00 до 21:00",
        "code": "066",
        "freePlaces": 4,
        "usersInShop": []
    },
    {
        "id": 20,
        "name": "-Парфюм-лидер- ул. Красный путь, 67",
        "lat": "54.997724",
        "lon": "73.355429",
        "city": "Омск",
        "line1": "г. Омск, ул. Красный путь, 67",
        "line2": "Ежедневно с 10:00 до 21:00",
        "code": "067",
        "freePlaces": 4,
        "usersInShop": []
    },
    {
        "id": 22,
        "name": "-Парфюм-лидер- ТК «На Кузнечной»",
        "lat": "54.972588",
        "lon": "73.411549",
        "city": "Омск",
        "line1": "г. Омск, ул. Богдана Хмельницкого, 160",
        "line2": "Ежедневно с 10:00 до 21:00",
        "code": "069",
        "freePlaces": 4,
        "usersInShop": []
    },
    {
        "id": 117,
        "name": "-Парфюм-лидер- пр. Менделеева, 7",
        "lat": "55.047272 ",
        "lon": "73.305303",
        "city": "Омск",
        "line1": "г. Омск, пр. Менделеева, 7",
        "line2": "Ежедневно с 10:00 до 20:00",
        "code": "070",
        "freePlaces": 4,
        "usersInShop": []
    },
    {
        "id": 121,
        "name": "-Парфюм-лидер- ул. Нефтезаводская, 27/1",
        "lat": "55.038294",
        "lon": "73.263468",
        "city": "Омск",
        "line1": "г. Омск, ул. Нефтезаводская, 27/1",
        "line2": "Ежедневно с 10:00 до 20:00",
        "code": "078",
        "freePlaces": 4,
        "usersInShop": []
    },
    {
        "id": 125,
        "name": "-Парфюм-лидер- пр. Космический, 52в",
        "lat": "54.979358",
        "lon": "73.463436",
        "city": "Омск",
        "line1": "г. Омск, пр. Космический, 52в",
        "line2": "Ежедневно с 09:00 до 19:00",
        "code": "085",
        "freePlaces": 4,
        "usersInShop": []
    },
    {
        "id": 127,
        "name": "-Парфюм-лидер- ТЦ «АТ-Маркет»",
        "lat": "54.922090 ",
        "lon": "73.459016",
        "city": "Омск",
        "line1": "г. Омск, ул. 6-я Станционная, 2/3",
        "line2": "Ежедневно с 10:00 до 21:00",
        "code": "087",
        "freePlaces": 4,
        "usersInShop": []
    },
    {
        "id": 129,
        "name": "-Парфюм-лидер- ТК «Оазис»",
        "lat": "54.993308",
        "lon": "73.257019",
        "city": "Омск",
        "line1": "г. Омск, ул. Лесной проезд, 11",
        "line2": "Ежедневно с 10:00 до 20:00",
        "code": "093",
        "freePlaces": 4,
        "usersInShop": []
    },
    {
        "id": 131,
        "name": "-Парфюм-лидер- ул. Лермонтова, 130",
        "lat": "54.982842 ",
        "lon": "73.402332",
        "city": "Омск",
        "line1": "г. Омск, ул. Лермонтова, 130",
        "line2": "Ежедневно с 10:00 до 20:00",
        "code": "095",
        "freePlaces": 4,
        "usersInShop": []
    },
    {
        "id": 135,
        "name": "-Парфюм-лидер- ТЦ «Планета Дом»",
        "lat": "54.985263 ",
        "lon": "73.314623",
        "city": "Омск",
        "line1": "г. Омск, ул. 70 лет октября, 12/1",
        "line2": "Ежедневно с 10:00 до 21:00",
        "code": "104",
        "freePlaces": 4,
        "usersInShop": []
    },
    {
        "id": 44,
        "name": "-Парфюм-лидер- ул. Степанца, 10/4",
        "lat": "54.997828",
        "lon": "73.287413",
        "city": "Омск",
        "line1": "г. Омск, ул. Степанца, 10/4",
        "line2": "Ежедневно с 10:00 до 20:00",
        "code": "118",
        "freePlaces": 4,
        "usersInShop": []
    },
    {
        "id": 142,
        "name": "-Парфюм-лидер- ул. Гризодубовой, 16",
        "lat": "54.941358",
        "lon": "73.391290",
        "city": "Омск",
        "line1": "г. Омск, ул. Гризодубовой, 16",
        "line2": "Ежедневно с 10:00 до 20:00",
        "code": "119",
        "freePlaces": 4,
        "usersInShop": []
    },
    {
        "id": 145,
        "name": "-Парфюм-лидер- ТК «Темп»",
        "lat": "55.034935 ",
        "lon": "73.289462",
        "city": "Омск",
        "line1": "г. Омск, ул. Химиков, 12",
        "line2": "Ежедневно с 10:00 до 20:00",
        "code": "124",
        "freePlaces": 4,
        "usersInShop": []
    },
    {
        "id": 55,
        "name": "-Парфюм-лидер- ТК \"Первомайский\"",
        "lat": "55.046094",
        "lon": "73.315988",
        "city": "Омск",
        "line1": "г. Омск, ул. Заозерная, 11, к. 1",
        "line2": "Ежедневно с 10:00 до 20:00",
        "code": "142",
        "freePlaces": 4,
        "usersInShop": []
    },
    {
        "id": 163,
        "name": "-Парфюм-лидер- ТК «Дачный»",
        "lat": "55.008786 ",
        "lon": "73.346187",
        "city": "Омск",
        "line1": "г. Омск, ул. 2-я Дачная, 1а",
        "line2": "Ежедневно с 10:00 до 20:00",
        "code": "161",
        "freePlaces": 4,
        "usersInShop": []
    },
    {
        "id": 170,
        "name": "-Парфюм-лидер- пр. Мира, 46",
        "lat": "55.029589",
        "lon": "73.285713",
        "city": "Омск",
        "line1": "г. Омск, пр. Мира, 46",
        "line2": "Ежедневно с 10:00 до 20:00",
        "code": "173",
        "freePlaces": 4,
        "usersInShop": []
    },
    {
        "id": 73,
        "name": "-Парфюм-лидер- ул. Лукашевича, 21Б",
        "lat": "54.999671",
        "lon": "73.280626",
        "city": "Омск",
        "line1": "г. Омск, ул. Лукашевича, 21Б",
        "line2": "Ежедневно с 10:00 до 20:00",
        "code": "195",
        "freePlaces": 4,
        "usersInShop": []
    },
    {
        "id": 75,
        "name": "-Парфюм-лидер- ул. Путилова, 7",
        "lat": "54.992312",
        "lon": "73.279243",
        "city": "Омск",
        "line1": "г. Омск, ул. Путилова, 7",
        "line2": "Ежедневно с 09:30 до 18:00",
        "code": "197",
        "freePlaces": 4,
        "usersInShop": []
    },
    {
        "id": 403,
        "name": "-Парфюм-лидер- ул. Бетховена, 23",
        "lat": "54.931826",
        "lon": "73.326575",
        "city": "Омск",
        "line1": "г. Омск, ул. Бетховена, 23",
        "line2": "Ежедневно с 10:00 до 20:00",
        "code": "213",
        "freePlaces": 4,
        "usersInShop": []
    },
    {
        "id": 392,
        "name": "Интернет-магазин",
        "lat": "0",
        "lon": "0",
        "city": "Омск",
        "line1": "Интернет-магазин",
        "line2": "Ежедневно с 00:00 до 23:59",
        "code": "977",
        "freePlaces": 4,
        "usersInShop": []
    },
    {
        "id": 200,
        "name": "-- г. Омск, 988 Интернет магазин",
        "lat": "",
        "lon": "",
        "city": "Омск",
        "line1": "г. Омск, г. Омск, 988 Интернет магазин",
        "line2": "Ежедневно с  до 20:00",
        "code": "988",
        "freePlaces": 4,
        "usersInShop": []
    },
    {
        "id": 247,
        "name": "-Marafett- ул. Кирова, 53",
        "lat": "54.942899",
        "lon": "73.425578",
        "city": "Омск",
        "line1": "г. Омск, ул. Кирова, 53",
        "line2": "Ежедневно с 10:00 до 20:00",
        "code": "М001",
        "freePlaces": 4,
        "usersInShop": []
    },
    {
        "id": 248,
        "name": "-Marafett- ул. 22 Апреля, 24",
        "lat": "55.041952  ",
        "lon": "73.278120",
        "city": "Омск",
        "line1": "г. Омск, ул. 22 Апреля, 24",
        "line2": "Ежедневно с 9:30 до 20:30",
        "code": "М003",
        "freePlaces": 4,
        "usersInShop": []
    },
    {
        "id": 249,
        "name": "-Marafett- ул. Крупской, 9/2",
        "lat": "55.000884 ",
        "lon": "73.293912",
        "city": "Омск",
        "line1": "г. Омск, ул. Крупской, 9/2",
        "line2": "Ежедневно с 10:00 до 20:00",
        "code": "М004",
        "freePlaces": 4,
        "usersInShop": []
    },
    {
        "id": 250,
        "name": "-Marafett- ул. Мира, 42/1",
        "lat": "55.028522",
        "lon": "73.288100",
        "city": "Омск",
        "line1": "г. Омск, ул. Мира, 42/1",
        "line2": "Ежедневно с 10:00 до 21:00",
        "code": "М005",
        "freePlaces": 4,
        "usersInShop": []
    },
    {
        "id": 222,
        "name": "-Marafett- ул. Маяковского, 65",
        "lat": "54.971621 ",
        "lon": "73.395988",
        "city": "Омск",
        "line1": "г. Омск, ул. Маяковского, 65",
        "line2": "Ежедневно с 10:00 до 19:30",
        "code": "М006",
        "freePlaces": 4,
        "usersInShop": []
    },
    {
        "id": 251,
        "name": "-Marafett- ул. Химиков, 20",
        "lat": "55.041003",
        "lon": "73.293409",
        "city": "Омск",
        "line1": "г. Омск, ул. Химиков, 20",
        "line2": "Ежедневно с 09:00 до 20:00",
        "code": "М007",
        "freePlaces": 4,
        "usersInShop": []
    },
    {
        "id": 252,
        "name": "-Marafett- ул. Ватутина, 5",
        "lat": "54.988861",
        "lon": "73.274383",
        "city": "Омск",
        "line1": "г. Омск, ул. Ватутина, 5",
        "line2": "Ежедневно с 09:00 до 20:00",
        "code": "М008",
        "freePlaces": 4,
        "usersInShop": []
    },
    {
        "id": 253,
        "name": "-Marafett- Камерный переулок, 49А",
        "lat": "54.953783",
        "lon": "73.460658",
        "city": "Омск",
        "line1": "г. Омск, Камерный переулок, 49А",
        "line2": "Ежедневно с 09:00 до 20:00",
        "code": "М009",
        "freePlaces": 4,
        "usersInShop": []
    },
    {
        "id": 254,
        "name": "-Marafett- ул. 75 Гвардейской бригады, 1Г",
        "lat": "54.972385 ",
        "lon": "73.471842",
        "city": "Омск",
        "line1": "г. Омск, ул. 75 Гвардейской бригады, 1Г",
        "line2": "Ежедневно с 10:00 до 20:00",
        "code": "М010",
        "freePlaces": 4,
        "usersInShop": []
    },
    {
        "id": 255,
        "name": "-Marafett- ул. Лобкова, 3",
        "lat": "54.938586",
        "lon": "73.383403",
        "city": "Омск",
        "line1": "г. Омск, ул. Лобкова, 3",
        "line2": "Ежедневно с 09:00 до 20:30",
        "code": "М011",
        "freePlaces": 4,
        "usersInShop": []
    },
    {
        "id": 256,
        "name": "-Marafett- ул. Масленникова, 181",
        "lat": "54.975822  ",
        "lon": "73.422479",
        "city": "Омск",
        "line1": "г. Омск, ул. Масленникова, 181",
        "line2": "Ежедневно с 09:00 до 21:00",
        "code": "М012",
        "freePlaces": 4,
        "usersInShop": []
    },
    {
        "id": 257,
        "name": "-Marafett- ул. Гашека, 3 Марафет",
        "lat": "54.907874  ",
        "lon": "73.452195",
        "city": "Омск",
        "line1": "г. Омск, ул. Гашека, 3 Марафет",
        "line2": "Ежедневно с 10:00 до 20:00",
        "code": "М013",
        "freePlaces": 4,
        "usersInShop": []
    },
    {
        "id": 258,
        "name": "-Marafett- ул. Взлетная,15",
        "lat": "54.999413",
        "lon": "73.303821",
        "city": "Омск",
        "line1": "г. Омск, ул. Взлетная,15",
        "line2": "Ежедневно с 10:00 до 20:00",
        "code": "М014",
        "freePlaces": 4,
        "usersInShop": []
    },
    {
        "id": 259,
        "name": "-Marafett- ул. Дианова, 16/2",
        "lat": "54.996149 ",
        "lon": "73.248709",
        "city": "Омск",
        "line1": "г. Омск, ул. Дианова, 16/2",
        "line2": "Ежедневно с 10:00 до 20:00",
        "code": "М015",
        "freePlaces": 4,
        "usersInShop": []
    },
    {
        "id": 260,
        "name": "-Marafett- ул. Фугенфирова, 3",
        "lat": "54.995493",
        "lon": "73.265238",
        "city": "Омск",
        "line1": "г. Омск, ул. Фугенфирова, 3",
        "line2": "Ежедневно с 10:00 до 20:00",
        "code": "М016",
        "freePlaces": 4,
        "usersInShop": []
    },
    {
        "id": 224,
        "name": "-Marafett- ул. Бархатовой, 4",
        "lat": "55.047750 ",
        "lon": "73.325767",
        "city": "Омск",
        "line1": "г. Омск, ул. Бархатовой, 4",
        "line2": "Ежедневно с 09:00 до 20:00",
        "code": "М017",
        "freePlaces": 4,
        "usersInShop": []
    },
    {
        "id": 261,
        "name": "-Marafett- ул. 2-я Солнечная, 28",
        "lat": "54.997058 ",
        "lon": "73.220268",
        "city": "Омск",
        "line1": "г. Омск, ул. 2-я Солнечная, 28",
        "line2": "Ежедневно с 10:00 до 20:00",
        "code": "М018",
        "freePlaces": 4,
        "usersInShop": []
    },
    {
        "id": 262,
        "name": "-Marafett- ул. Мира проспект, 69, корпус 3",
        "lat": "55.027232",
        "lon": "73.251206",
        "city": "Омск",
        "line1": "г. Омск, ул. Мира проспект, 69, корпус 3",
        "line2": "Ежедневно с 9:30 до 19:00",
        "code": "М019",
        "freePlaces": 4,
        "usersInShop": []
    },
    {
        "id": 263,
        "name": "-Marafett- ул. Серова, 21",
        "lat": "54.939196",
        "lon": "73.381480",
        "city": "Омск",
        "line1": "г. Омск, ул. Серова, 21",
        "line2": "Ежедневно с 09:00 до 20:00",
        "code": "М020",
        "freePlaces": 4,
        "usersInShop": []
    },
    {
        "id": 264,
        "name": "-Marafett- ул. Завертяева, 23/4",
        "lat": "55.033914",
        "lon": "73.454576",
        "city": "Омск",
        "line1": "г. Омск, ул. Завертяева, 23/4",
        "line2": "Ежедневно с 09:00 до 20:00",
        "code": "М021",
        "freePlaces": 4,
        "usersInShop": []
    },
    {
        "id": 223,
        "name": "-Marafett- ул. Пономаренко, 2",
        "lat": "54.976891",
        "lon": "73.470063",
        "city": "Омск",
        "line1": "г. Омск, ул. Пономаренко, 2",
        "line2": "Ежедневно с 10:00 до 19:00",
        "code": "М023",
        "freePlaces": 4,
        "usersInShop": []
    },
    {
        "id": 266,
        "name": "-Marafett- ул. Комарова, 6",
        "lat": "54.997223",
        "lon": "73.284660",
        "city": "Омск",
        "line1": "г. Омск, ул. Комарова, 6",
        "line2": "Ежедневно с 09:00 до 18:00",
        "code": "М024",
        "freePlaces": 4,
        "usersInShop": []
    },
    {
        "id": 267,
        "name": "-Marafett- ул.  Нефтезаводская, 17",
        "lat": "55.033192",
        "lon": "73.267735",
        "city": "Омск",
        "line1": "г. Омск, ул.  Нефтезаводская, 17",
        "line2": "Ежедневно с 09:00 до 20:00",
        "code": "М026",
        "freePlaces": 4,
        "usersInShop": []
    },
    {
        "id": 269,
        "name": "-Marafett- ул. Алтайская, 33",
        "lat": "55.017576 ",
        "lon": "73.428794",
        "city": "Омск",
        "line1": "г. Омск, ул. Алтайская, 33",
        "line2": "Ежедневно с 09:00 до 20:00",
        "code": "М029",
        "freePlaces": 4,
        "usersInShop": []
    },
    {
        "id": 270,
        "name": "-Marafett- ул. Бетховена, 22/2",
        "lat": "54.932467",
        "lon": "73.331767",
        "city": "Омск",
        "line1": "г. Омск, ул. Бетховена, 22/2",
        "line2": "Ежедневно с 09:00 до 19:00",
        "code": "М031",
        "freePlaces": 4,
        "usersInShop": []
    },
    {
        "id": 272,
        "name": "-Marafett- ул.Молодогвардейская, 5",
        "lat": "54.925468 ",
        "lon": "73.454567",
        "city": "Омск",
        "line1": "г. Омск, ул.Молодогвардейская, 5",
        "line2": "Ежедневно с 10:00 до 20:00",
        "code": "М033",
        "freePlaces": 4,
        "usersInShop": []
    },
    {
        "id": 378,
        "name": "-Marafett- ул. Герцена, 232/1",
        "lat": "54.996619 ",
        "lon": "73.274024",
        "city": "Омск",
        "line1": "г. Омск, ул. Герцена, 232/1",
        "line2": "Ежедневно с 09:30 до 19:30",
        "code": "М037",
        "freePlaces": 4,
        "usersInShop": []
    },
    {
        "id": 278,
        "name": "-Marafett- ул. Тарская, 13 А",
        "lat": "54.993071",
        "lon": "73.368023",
        "city": "Омск",
        "line1": "г. Омск, ул. Тарская, 13 А",
        "line2": "Ежедневно с 10:00 до 20:00",
        "code": "М041",
        "freePlaces": 4,
        "usersInShop": []
    },
    {
        "id": 281,
        "name": "-Marafett- Бульвар Архитекторов, д.1, корпус 5",
        "lat": "54.992560 ",
        "lon": "73.312256",
        "city": "Омск",
        "line1": "г. Омск, Бульвар Архитекторов, д.1, корпус 5",
        "line2": "Ежедневно с 10:00 до 20:00",
        "code": "М046",
        "freePlaces": 4,
        "usersInShop": []
    },
    {
        "id": 282,
        "name": "-Marafett- ул. 33-Северная, 27",
        "lat": "55.030942",
        "lon": "73.384498",
        "city": "Омск",
        "line1": "г. Омск, ул. 33-Северная, 27",
        "line2": "Ежедневно с 09:00 до 20:30",
        "code": "М047",
        "freePlaces": 4,
        "usersInShop": []
    },
    {
        "id": 244,
        "name": "-Marafett- ул. 6-ая Линия, 68 ",
        "lat": "56.889223",
        "lon": "74.368297",
        "city": "Омск",
        "line1": "г. Омск, ул. 6-ая Линия, 68 ",
        "line2": "Ежедневно с 10:00 до 20:00",
        "code": "М048",
        "freePlaces": 4,
        "usersInShop": []
    },
    {
        "id": 283,
        "name": "-Marafett- ул. Омская, 158",
        "lat": "54.991635",
        "lon": "73.429342",
        "city": "Омск",
        "line1": "г. Омск, ул. Омская, 158",
        "line2": "Ежедневно с 10:00 до 20:00",
        "code": "М049",
        "freePlaces": 4,
        "usersInShop": []
    },
    {
        "id": 220,
        "name": "-Marafett- Пр. Маркса, 60",
        "lat": "54.947646",
        "lon": "73.386214",
        "city": "Омск",
        "line1": "г. Омск, Пр. Маркса, 60",
        "line2": "Ежедневно с 10:00 до 20:00",
        "code": "М050",
        "freePlaces": 4,
        "usersInShop": []
    },
    {
        "id": 284,
        "name": "-Marafett- Бульвар Зеленый, 4",
        "lat": "55.002516",
        "lon": "73.288172",
        "city": "Омск",
        "line1": "г. Омск, Бульвар Зеленый, 4",
        "line2": "Ежедневно с 09:00 до 21:00",
        "code": "М051",
        "freePlaces": 4,
        "usersInShop": []
    },
    {
        "id": 285,
        "name": "-Marafett- ул. Богдана Хмельницкого, 188А",
        "lat": "54.965786 ",
        "lon": "73.412715",
        "city": "Омск",
        "line1": "г. Омск, ул. Богдана Хмельницкого, 188А",
        "line2": "Ежедневно с 09:00 до 20:00",
        "code": "М052",
        "freePlaces": 4,
        "usersInShop": []
    },
    {
        "id": 286,
        "name": "-Marafett- ул. Рождественского, 6 МАРАФЕТ",
        "lat": "54.941011",
        "lon": "73.378138",
        "city": "Омск",
        "line1": "г. Омск, ул. Рождественского, 6 МАРАФЕТ",
        "line2": "Ежедневно с 09:00 до 18:00",
        "code": "М053",
        "freePlaces": 4,
        "usersInShop": []
    },
    {
        "id": 287,
        "name": "-Marafett- ул. Химиков, 32",
        "lat": "55.043876",
        "lon": "73.295862",
        "city": "Омск",
        "line1": "г. Омск, ул. Химиков, 32",
        "line2": "Ежедневно с 10:00 до 20:00",
        "code": "М054",
        "freePlaces": 4,
        "usersInShop": []
    },
    {
        "id": 288,
        "name": "-Marafett- ул. Нефтезаводская, 28/3",
        "lat": "55.037325",
        "lon": "73.267322",
        "city": "Омск",
        "line1": "г. Омск, ул. Нефтезаводская, 28/3",
        "line2": "Ежедневно с 10:00 до 20:00",
        "code": "М055",
        "freePlaces": 4,
        "usersInShop": []
    },
    {
        "id": 289,
        "name": "-Marafett- ул. Кирова,12",
        "lat": "54.945748 ",
        "lon": "73.419524",
        "city": "Омск",
        "line1": "г. Омск, ул. Кирова,12",
        "line2": "Ежедневно с 09:00 до 20:00",
        "code": "М056",
        "freePlaces": 4,
        "usersInShop": []
    },
    {
        "id": 295,
        "name": "-Marafett- 21 Амурская, 20Г",
        "lat": "55.028878 ",
        "lon": "73.416281",
        "city": "Омск",
        "line1": "г. Омск, 21 Амурская, 20Г",
        "line2": "Ежедневно с 10:00 до 20:00",
        "code": "М057",
        "freePlaces": 4,
        "usersInShop": []
    },
    {
        "id": 290,
        "name": "-Marafett- ул. Гуртьева, 17",
        "lat": "54.920015",
        "lon": "73.404163",
        "city": "Омск",
        "line1": "г. Омск, ул. Гуртьева, 17",
        "line2": "Ежедневно с 10:00 до 20:00",
        "code": "М058",
        "freePlaces": 4,
        "usersInShop": []
    },
    {
        "id": 206,
        "name": "-Marafett- ул. Машиностроительная, 66",
        "lat": "54.914561",
        "lon": "73.442682",
        "city": "Омск",
        "line1": "г. Омск, ул. Машиностроительная, 66",
        "line2": "Ежедневно с 10:00 до 20:00",
        "code": "М059",
        "freePlaces": 4,
        "usersInShop": []
    },
    {
        "id": 296,
        "name": "-Marafett- ул. Лисицкого, 5",
        "lat": "54.997703",
        "lon": "73.241918",
        "city": "Омск",
        "line1": "г. Омск, ул. Лисицкого, 5",
        "line2": "Ежедневно с 09:00 до 20:00",
        "code": "М065",
        "freePlaces": 4,
        "usersInShop": []
    },
    {
        "id": 299,
        "name": "-Marafett- ул. 6-я Шинная, 10",
        "lat": "54.952263",
        "lon": "73.449653",
        "city": "Омск",
        "line1": "г. Омск, ул. 6-я Шинная, 10",
        "line2": "Ежедневно с 10:00 до 20:00",
        "code": "М067",
        "freePlaces": 4,
        "usersInShop": []
    },
    {
        "id": 308,
        "name": "-Marafett- ул. Мира, 163",
        "lat": "55.031272",
        "lon": "73.224877",
        "city": "Омск",
        "line1": "г. Омск, ул. Мира, 163",
        "line2": "Ежедневно с 09:00 до 20:00",
        "code": "М068",
        "freePlaces": 4,
        "usersInShop": []
    },
    {
        "id": 301,
        "name": "-Marafett- ул. Красный Путь, 80/1",
        "lat": "55.007266",
        "lon": "73.345044",
        "city": "Омск",
        "line1": "г. Омск, ул. Красный Путь, 80/1",
        "line2": "Ежедневно с 09:00 до 21:00",
        "code": "М070",
        "freePlaces": 4,
        "usersInShop": []
    },
    {
        "id": 354,
        "name": "-Marafett- ул. Мира, 100",
        "lat": "55.029255",
        "lon": "73.248440",
        "city": "Омск",
        "line1": "г. Омск, ул. Мира, 100",
        "line2": "Ежедневно с 10:00 до 20:00",
        "code": "М073",
        "freePlaces": 4,
        "usersInShop": []
    },
    {
        "id": 315,
        "name": "-Marafett- ул. 20 Партсъезда, 37/2",
        "lat": "55.032820",
        "lon": "73.273664",
        "city": "Омск",
        "line1": "г. Омск, ул. 20 Партсъезда, 37/2",
        "line2": "Ежедневно с 09:00 до 20:00",
        "code": "М078",
        "freePlaces": 4,
        "usersInShop": []
    },
    {
        "id": 327,
        "name": "-Marafett- ул. Б.Цемента, 6",
        "lat": "54.949146",
        "lon": "73.426324",
        "city": "Омск",
        "line1": "г. Омск, ул. Б.Цемента, 6",
        "line2": "Ежедневно с 10:00 до 20:00",
        "code": "М085",
        "freePlaces": 4,
        "usersInShop": []
    },
    {
        "id": 319,
        "name": "-Marafett- ул. 2-я Железнодорожная, д.1а",
        "lat": "54.943194",
        "lon": "73.436780",
        "city": "Омск",
        "line1": "г. Омск, ул. 2-я Железнодорожная, д.1а",
        "line2": "Ежедневно с 10:00 до 20:00",
        "code": "М087",
        "freePlaces": 4,
        "usersInShop": []
    },
    {
        "id": 333,
        "name": "-Marafett- ул. Ядринцева, 24",
        "lat": "55.032867",
        "lon": "73.455133",
        "city": "Омск",
        "line1": "г. Омск, ул. Ядринцева, 24",
        "line2": "Ежедневно с 09:00 до 20:00",
        "code": "М096",
        "freePlaces": 4,
        "usersInShop": []
    },
    {
        "id": 344,
        "name": "-Marafett- Пр-т Комарова, д.15, к.4, пом.16 П",
        "lat": "54.985194",
        "lon": "73.302806",
        "city": "Омск",
        "line1": "г. Омск, Пр-т Комарова, д.15, к.4, пом.16 П",
        "line2": "Ежедневно с 10:00 до 20:00",
        "code": "М100",
        "freePlaces": 4,
        "usersInShop": []
    },
    {
        "id": 351,
        "name": "-Marafett- Комарова пр-кт, 31 Б",
        "lat": "54.980074",
        "lon": "73.315382",
        "city": "Омск",
        "line1": "г. Омск, Комарова пр-кт, 31 Б",
        "line2": "Ежедневно с 09:00 до 21:00",
        "code": "М111",
        "freePlaces": 4,
        "usersInShop": []
    },
    {
        "id": 365,
        "name": "-Marafett- ул. Мельничная, 126 А",
        "lat": "54.908702",
        "lon": "73.310890",
        "city": "Омск",
        "line1": "г. Омск, ул. Мельничная, 126 А",
        "line2": "Ежедневно с 10:00 до 20:00",
        "code": "М120",
        "freePlaces": 4,
        "usersInShop": []
    },
    {
        "id": 368,
        "name": "-Marafett- ул. Богдана Хмельницкого, 42/1",
        "lat": "54.990406",
        "lon": "73.407953",
        "city": "Омск",
        "line1": "г. Омск, ул. Богдана Хмельницкого, 42/1",
        "line2": "Ежедневно с 10:00 до 20:00",
        "code": "М123",
        "freePlaces": 4,
        "usersInShop": []
    },
    {
        "id": 234,
        "name": "-Marafett- ул. Дмитриева, 5/5, пом.1П",
        "lat": "54.986413 ",
        "lon": "73.315481",
        "city": "Омск",
        "line1": "г. Омск, ул. Дмитриева, 5/5, пом.1П",
        "line2": "Ежедневно с 09:00 до 20:00",
        "code": "М126",
        "freePlaces": 4,
        "usersInShop": []
    },
    {
        "id": 309,
        "name": "-Marafett- ул. Суровцева, 102",
        "lat": "54.947289",
        "lon": "73.342619",
        "city": "Омск",
        "line1": "г. Омск, ул. Суровцева, 102",
        "line2": "Ежедневно с 09:00 до 20:30",
        "code": "М129",
        "freePlaces": 4,
        "usersInShop": []
    },
    {
        "id": 377,
        "name": "-Marafett- ул. Академика Павлова, 22",
        "lat": "54.941099 ",
        "lon": "73.389825",
        "city": "Омск",
        "line1": "г. Омск, ул. Академика Павлова, 22",
        "line2": "Ежедневно с 09:00 до 20:00",
        "code": "М136",
        "freePlaces": 4,
        "usersInShop": []
    },
    {
        "id": 374,
        "name": "-Marafett- ул. Дианова, 13",
        "lat": "54.993241",
        "lon": "73.255222",
        "city": "Омск",
        "line1": "г. Омск, ул. Дианова, 13",
        "line2": "Ежедневно с 09:00 до 20:00",
        "code": "М138",
        "freePlaces": 4,
        "usersInShop": []
    },
    {
        "id": 375,
        "name": "-Marafett- ул. 4-я Челюскинцев, 66, корпус 1",
        "lat": "55.025477",
        "lon": "73.416308",
        "city": "Омск",
        "line1": "г. Омск, ул. 4-я Челюскинцев, 66, корпус 1",
        "line2": "Ежедневно с 09:00 до 20:00",
        "code": "М139",
        "freePlaces": 4,
        "usersInShop": []
    },
    {
        "id": 380,
        "name": "-Marafett- ул. Багратиона, 4 (Marafett)",
        "lat": "55.020864",
        "lon": "73.410334",
        "city": "Омск",
        "line1": "г. Омск, ул. Багратиона, 4 (Marafett)",
        "line2": "Ежедневно с 09:00 до 20:00",
        "code": "М144",
        "freePlaces": 4,
        "usersInShop": []
    },
    {
        "id": 385,
        "name": "-Marafett- ул. Кирова, 20",
        "lat": "54.942485 ",
        "lon": "73.423422",
        "city": "Омск",
        "line1": "г. Омск, ул. Кирова, 20",
        "line2": "Ежедневно с 09:00 до 20:00",
        "code": "М147",
        "freePlaces": 4,
        "usersInShop": []
    },
    {
        "id": 209,
        "name": "-Marafett- ул. Лобкова, 6/1",
        "lat": "54.937820",
        "lon": "73.381112",
        "city": "Омск",
        "line1": "г. Омск, ул. Лобкова, 6/1",
        "line2": "Ежедневно с 09:00 до 20:00",
        "code": "М160",
        "freePlaces": 4,
        "usersInShop": []
    },
    {
        "id": 221,
        "name": "-Marafett- ТК \"Тара\"",
        "lat": "54.987988",
        "lon": "73.425066",
        "city": "Омск",
        "line1": "г. Омск, ул. 20-Линия, 61/1",
        "line2": "Ежедневно с 09:00 до 19:00",
        "code": "М163",
        "freePlaces": 4,
        "usersInShop": []
    },
    {
        "id": 242,
        "name": "-Marafett- ул. Ватутина, 13А",
        "lat": "54.985659",
        "lon": "73.279405",
        "city": "Омск",
        "line1": "г. Омск, ул. Ватутина, 13А",
        "line2": "Ежедневно с 10:00 до 21:00",
        "code": "М169",
        "freePlaces": 4,
        "usersInShop": []
    },
    {
        "id": 245,
        "name": "-Marafett- Завертяева,18/3",
        "lat": "55.032666",
        "lon": "73.446069",
        "city": "Омск",
        "line1": "г. Омск, Завертяева,18/3",
        "line2": "Ежедневно с 09:00 до 20:00",
        "code": "М170",
        "freePlaces": 4,
        "usersInShop": []
    },
    {
        "id": 207,
        "name": "-Marafett- Верхнеднепровская, 274",
        "lat": "54.986485",
        "lon": "73.203075",
        "city": "Омск",
        "line1": "г. Омск, Верхнеднепровская, 274",
        "line2": "Ежедневно с 10:00 до 20:00",
        "code": "М171",
        "freePlaces": 4,
        "usersInShop": []
    },
    {
        "id": 216,
        "name": "-Marafett- ул. 2-Челюскинцев, 9А",
        "lat": "55.010323",
        "lon": "73.408825",
        "city": "Омск",
        "line1": "г. Омск, ул. 2-Челюскинцев, 9А",
        "line2": "Ежедневно с 09:00 до 20:00",
        "code": "М177",
        "freePlaces": 4,
        "usersInShop": []
    },
    {
        "id": 218,
        "name": "-Marafett- ул. 6-Станционная, 149",
        "lat": "54.926580",
        "lon": "73.497462",
        "city": "Омск",
        "line1": "г. Омск, ул. 6-Станционная, 149",
        "line2": "Ежедневно с 10:00 до 20:00",
        "code": "М179",
        "freePlaces": 4,
        "usersInShop": []
    },
    {
        "id": 399,
        "name": "-Marafett- ул. Вокзальная, 27",
        "lat": "54.940712",
        "lon": "73.396527",
        "city": "Омск",
        "line1": "г. Омск, ул. Вокзальная, 27",
        "line2": "Ежедневно с 9:00 до 20:00",
        "code": "М187",
        "freePlaces": 4,
        "usersInShop": []
    },
    {
        "id": 400,
        "name": "-Marafett- ул. Волховстроя,1 ",
        "lat": "55.001948",
        "lon": "73.356076",
        "city": "Омск",
        "line1": "г. Омск, ул. Волховстроя,1 ",
        "line2": "Ежедневно с 9:00 до 21:00",
        "code": "М188",
        "freePlaces": 4,
        "usersInShop": []
    },
    {
        "id": 405,
        "name": "-Marafett- мкр. Входной, 3",
        "lat": "54.950252",
        "lon": "73.169972",
        "city": "Омск",
        "line1": "г. Омск, мкр. Входной, 3",
        "line2": "Ежедневно с 10:00 до 20:00",
        "code": "М191",
        "freePlaces": 4,
        "usersInShop": []
    },
    {
        "id": 406,
        "name": "-Marafett- ТК Метромолл",
        "lat": "54.981546",
        "lon": "73.323188",
        "city": "Омск",
        "line1": "г. Омск, ул. 70 лет Октября, 24",
        "line2": "Ежедневно с 10:00 до 21:00",
        "code": "М192",
        "freePlaces": 4,
        "usersInShop": []
    },
    {
        "id": 407,
        "name": "-Marafett- ул. 21 Амурская, 43 к.3",
        "lat": "55.045403",
        "lon": "73.423917",
        "city": "Омск",
        "line1": "г. Омск, ул. 21 Амурская, 43 к.3",
        "line2": "Ежедневно с 10:00 до 20:00",
        "code": "М193",
        "freePlaces": 4,
        "usersInShop": []
    },
    {
        "id": 409,
        "name": "-Marafett- ул. Комарова, 14 к1",
        "lat": "54.991599",
        "lon": "73.294936",
        "city": "Омск",
        "line1": "г. Омск, ул. Комарова, 14 к1",
        "line2": "Ежедневно с 10:00 до 20:00",
        "code": "М195",
        "freePlaces": 4,
        "usersInShop": []
    },
    {
        "id": 411,
        "name": "-Marafett- ТК \"Сахалин\"",
        "lat": "54.922265",
        "lon": "73.418383",
        "city": "Омск",
        "line1": "г. Омск, ул. 10-я Чередовая, 17к2",
        "line2": "Ежедневно с 10:00 до 20:00",
        "code": "М197",
        "freePlaces": 4,
        "usersInShop": []
    },
    {
        "id": 413,
        "name": "-Marafett- ул. Заозерная, 26",
        "lat": "55.047961",
        "lon": "73.314277",
        "city": "Омск",
        "line1": "г. Омск, ул. Заозерная, 26",
        "line2": "Ежедневно с 10:00 до 21:00",
        "code": "М199",
        "freePlaces": 4,
        "usersInShop": []
    },
    {
        "id": 415,
        "name": "-Marafett- ул. Жуковского, 32",
        "lat": "54.923605",
        "lon": "73.408744",
        "city": "Омск",
        "line1": "г. Омск, ул. Жуковского, 32",
        "line2": "Ежедневно с 10:00 до 20:00",
        "code": "М201",
        "freePlaces": 4,
        "usersInShop": []
    },
    {
        "id": 416,
        "name": "-Marafett- ул. 3-я Молодёжная, 59",
        "lat": "54.951855",
        "lon": "73.461798",
        "city": "Омск",
        "line1": "г. Омск, ул. 3-я Молодёжная, 59",
        "line2": "Ежедневно с 9:00 до 20:30",
        "code": "М202",
        "freePlaces": 4,
        "usersInShop": []
    },
    {
        "id": 420,
        "name": "-Marafett- ул. Красный Путь, 141/1",
        "lat": "55.011221",
        "lon": "73.335361",
        "city": "Омск",
        "line1": "г. Омск, ул. Красный Путь, 141/1",
        "line2": "Ежедневно с 09:00 до 21:00",
        "code": "М206",
        "freePlaces": 4,
        "usersInShop": []
    },
    {
        "id": 464,
        "name": "-- Фирма 17+",
        "lat": "55.052747",
        "lon": "73.268589",
        "city": "Омск",
        "line1": "г. Омск, ул. 1 Заводская, д. 1/1",
        "line2": "Ежедневно с 09:00 до 18:00",
        "code": "М501",
        "freePlaces": 4,
        "usersInShop": []
    }
]